{"timestamp": "2025-12-21T08:34:12.038126", "type": "gps", "data": {"raw": "$GPGSV,2,1,08,03,39,184,28,04,71,055,32,07,35,266,35,08,10,145,26,1*6A", "type": "$GPGSV", "timestamp": "2025-12-21T08:34:12.038106"}, "gps_position": null}
{"timestamp": "2025-12-21T08:34:12.038391", "type": "gps", "data": {"raw": "$GPGSV,2,2,08,09,56,324,30,16,51,066,26,26,20,045,23,30,08,257,20,1*68", "type": "$GPGSV", "timestamp": "2025-12-21T08:34:12.038380"}, "gps_position": null}
{"timestamp": "2025-12-21T08:34:12.038469", "type": "gps", "data": {"raw": "$GPGSV,1,1,03,03,39,184,22,04,71,055,18,09,56,324,22,8*5E", "type": "$GPGSV", "timestamp": "2025-12-21T08:34:12.038463"}, "gps_position": null}
{"timestamp": "2025-12-21T08:34:12.038528", "type": "gps", "data": {"raw": "$GLGSV,1,1,03,02,70,005,21,12,80,008,28,01,47,126,26,1*42", "type": "$GLGSV", "timestamp": "2025-12-21T08:34:12.038523"}, "gps_position": null}
{"timestamp": "2025-12-21T08:34:12.038579", "type": "gps", "data": {"raw": "$GAGSV,3,1,09,02,62,129,29,03,45,092,20,07,21,303,26,08,66,346,25,7*7A", "type": "$GAGSV", "timestamp": "2025-12-21T08:34:12.038573"}, "gps_position": null}
{"timestamp": "2025-12-21T08:34:12.038619", "type": "gps", "data": {"raw": "$GAGSV,3,2,09,13,15,255,22,16,13,039,12,25,33,050,25,26,10,304,13,7*76", "type": "$GAGSV", "timestamp": "2025-12-21T08:34:12.038615"}, "gps_position": null}
{"timestamp": "2025-12-21T08:34:12.038705", "type": "gps", "data": {"raw": "$GAGSV,3,3,09,30,26,191,23,7*45", "type": "$GAGSV", "timestamp": "2025-12-21T08:34:12.038700"}, "gps_position": null}
{"timestamp": "2025-12-21T08:34:12.038767", "type": "gps", "data": {"raw": "$GAGSV,1,1,04,02,62,129,19,08,66,346,21,13,15,255,20,25,33,050,15,1*7F", "type": "$GAGSV", "timestamp": "2025-12-21T08:34:12.038759"}, "gps_position": null}
{"timestamp": "2025-12-21T08:34:12.038823", "type": "gps", "data": {"raw": "$GBGSV,2,1,05,19,22,140,24,21,47,316,22,22,76,149,30,36,56,044,27,3*70", "type": "$GBGSV", "timestamp": "2025-12-21T08:34:12.038818"}, "gps_position": null}
{"timestamp": "2025-12-21T08:34:12.038863", "type": "gps", "data": {"raw": "$GBGSV,2,2,05,45,70,235,27,3*46", "type": "$GBGSV", "timestamp": "2025-12-21T08:34:12.038859"}, "gps_position": null}
{"timestamp": "2025-12-21T08:34:12.038898", "type": "gps", "data": {"raw": "$GBGSV,1,1,02,21,47,316,21,36,56,044,17,5*77", "type": "$GBGSV", "timestamp": "2025-12-21T08:34:12.038894"}, "gps_position": null}
{"timestamp": "2025-12-21T08:34:12.038940", "type": "gps", "data": {"raw": "$GNGSA,A,3,03,04,07,08,09,16,26,30,,,,,0.8,0.5,0.6,1*3B", "type": "$GNGSA", "timestamp": "2025-12-21T08:34:12.038936"}, "gps_position": null}
{"timestamp": "2025-12-21T08:34:12.038975", "type": "gps", "data": {"raw": "$PSSGR,GSA,A,3,03,09,,,,,,,,,,,0.8,0.5,0.6,1,8*44", "type": "$PSSGR", "timestamp": "2025-12-21T08:34:12.038971"}, "gps_position": null}
{"timestamp": "2025-12-21T08:34:12.039007", "type": "gps", "data": {"raw": "$GNGSA,A,3,65,66,76,,,,,,,,,,0.8,0.5,0.6,2*3B", "type": "$GNGSA", "timestamp": "2025-12-21T08:34:12.039004"}, "gps_position": null}
{"timestamp": "2025-12-21T08:34:12.039038", "type": "gps", "data": {"raw": "$GNGSA,A,3,02,03,07,08,13,16,25,26,30,,,,0.8,0.5,0.6,3*33", "type": "$GNGSA", "timestamp": "2025-12-21T08:34:12.039035"}, "gps_position": null}
{"timestamp": "2025-12-21T08:34:12.039071", "type": "gps", "data": {"raw": "$PSSGR,GSA,A,3,302,308,,,,,,,,,,,0.8,0.5,0.6,3,1*4F", "type": "$PSSGR", "timestamp": "2025-12-21T08:34:12.039067"}, "gps_position": null}
{"timestamp": "2025-12-21T08:34:12.039102", "type": "gps", "data": {"raw": "$GNGSA,A,3,19,21,22,36,45,,,,,,,,0.8,0.5,0.6,4*30", "type": "$GNGSA", "timestamp": "2025-12-21T08:34:12.039098"}, "gps_position": null}
{"timestamp": "2025-12-21T08:34:12.039138", "type": "gps", "data": {"raw": "$PSSGR,GSA,A,3,221,,,,,,,,,,,,0.8,0.5,0.6,4,5*77", "type": "$PSSGR", "timestamp": "2025-12-21T08:34:12.039134"}, "gps_position": null}
{"timestamp": "2025-12-21T08:34:12.039176", "type": "gps", "data": {"raw": "$GNVTG,,T,,M,0.0,N,0.0,K,A*3D", "type": "$GNVTG", "timestamp": "2025-12-21T08:34:12.039172"}, "gps_position": null}
{"timestamp": "2025-12-21T08:34:12.039420", "type": "gps", "data": {"raw": "$GNDTM,W84,,0000.000000,N,00000.000000,E,0.000,W84*41", "type": "$GNDTM", "timestamp": "2025-12-21T08:34:12.039409"}, "gps_position": null}
{"timestamp": "2025-12-21T08:34:12.039632", "type": "gps", "data": {"raw": "$GNRMC,163412.00,A,3558.104021,N,11504.884108,W,0.0,,211225,10.9,E,A,V*50", "type": "$GNRMC", "timestamp": "2025-12-21T08:34:12.039597", "time": "163412.00", "status": "A", "latitude": "35.96840035", "longitude": "-115.0814018", "speed": "0.0", "track": ""}, "gps_position": {"latitude": 35.96840035, "longitude": -115.0814018, "altitude": null}}
{"timestamp": "2025-12-21T08:34:12.039829", "type": "gps", "data": {"raw": "$GNGNS,163412.00,3558.104021,N,11504.884108,W,AAAANN,25,0.5,828.7,-28.2,,,V*10", "type": "$GNGNS", "timestamp": "2025-12-21T08:34:12.039821"}, "gps_position": {"latitude": 35.96840035, "longitude": -115.0814018, "altitude": null}}
{"timestamp": "2025-12-21T08:34:12.039962", "type": "gps", "data": {"raw": "$GNGGA,163412.00,3558.104021,N,11504.884108,W,1,12,0.5,828.7,M,-28.2,M,,*44", "type": "$GNGGA", "timestamp": "2025-12-21T08:34:12.039938", "time": "163412.00", "latitude": "35.96840035", "longitude": "-115.0814018", "fix_quality": "1", "satellites": "12", "altitude": "828.7"}, "gps_position": {"latitude": 35.96840035, "longitude": -115.0814018, "altitude": 2718.832108}}
{"timestamp": "2025-12-21T08:34:12.040182", "type": "gps", "data": {"raw": "$PSMSG,magcal=PASS,bluesky=0*00", "type": "$PSMSG", "timestamp": "2025-12-21T08:34:12.040176"}, "gps_position": {"latitude": 35.96840035, "longitude": -115.0814018, "altitude": 2718.832108}}
{"timestamp": "2025-12-21T08:34:13.059107", "type": "gps", "data": {"raw": "$GPGSV,2,1,08,03,39,184,29,04,71,055,32,07,35,266,35,08,10,145,26,1*6B", "type": "$GPGSV", "timestamp": "2025-12-21T08:34:13.059088"}, "gps_position": {"latitude": 35.96840035, "longitude": -115.0814018, "altitude": 2718.832108}}
{"timestamp": "2025-12-21T08:34:13.059364", "type": "gps", "data": {"raw": "$GPGSV,2,2,08,09,56,324,31,16,51,066,24,26,20,045,21,30,08,257,20,1*69", "type": "$GPGSV", "timestamp": "2025-12-21T08:34:13.059353"}, "gps_position": {"latitude": 35.96840035, "longitude": -115.0814018, "altitude": 2718.832108}}
{"timestamp": "2025-12-21T08:34:13.059459", "type": "gps", "data": {"raw": "$GPGSV,1,1,03,03,39,184,21,04,71,055,18,09,56,324,23,8*5C", "type": "$GPGSV", "timestamp": "2025-12-21T08:34:13.059454"}, "gps_position": {"latitude": 35.96840035, "longitude": -115.0814018, "altitude": 2718.832108}}
{"timestamp": "2025-12-21T08:34:13.059520", "type": "gps", "data": {"raw": "$GLGSV,1,1,03,02,70,005,22,12,80,008,30,01,47,126,26,1*48", "type": "$GLGSV", "timestamp": "2025-12-21T08:34:13.059516"}, "gps_position": {"latitude": 35.96840035, "longitude": -115.0814018, "altitude": 2718.832108}}
{"timestamp": "2025-12-21T08:34:13.059669", "type": "gps", "data": {"raw": "$GAGSV,3,1,09,02,62,129,29,03,45,092,21,07,21,303,27,08,66,346,25,7*7A", "type": "$GAGSV", "timestamp": "2025-12-21T08:34:13.059663"}, "gps_position": {"latitude": 35.96840035, "longitude": -115.0814018, "altitude": 2718.832108}}
{"timestamp": "2025-12-21T08:34:13.059852", "type": "gps", "data": {"raw": "$GAGSV,3,2,09,13,15,255,21,16,13,039,12,25,33,050,25,26,10,304,13,7*75", "type": "$GAGSV", "timestamp": "2025-12-21T08:34:13.059846"}, "gps_position": {"latitude": 35.96840035, "longitude": -115.0814018, "altitude": 2718.832108}}
{"timestamp": "2025-12-21T08:34:13.059953", "type": "gps", "data": {"raw": "$GAGSV,3,3,09,30,26,191,25,7*43", "type": "$GAGSV", "timestamp": "2025-12-21T08:34:13.059949"}, "gps_position": {"latitude": 35.96840035, "longitude": -115.0814018, "altitude": 2718.832108}}
{"timestamp": "2025-12-21T08:34:13.059993", "type": "gps", "data": {"raw": "$GAGSV,1,1,04,02,62,129,19,08,66,346,19,13,15,255,18,25,33,050,15,1*7F", "type": "$GAGSV", "timestamp": "2025-12-21T08:34:13.059990"}, "gps_position": {"latitude": 35.96840035, "longitude": -115.0814018, "altitude": 2718.832108}}
{"timestamp": "2025-12-21T08:34:13.060027", "type": "gps", "data": {"raw": "$GBGSV,2,1,05,19,22,140,24,21,47,316,22,22,76,149,31,36,56,044,28,3*7E", "type": "$GBGSV", "timestamp": "2025-12-21T08:34:13.060024"}, "gps_position": {"latitude": 35.96840035, "longitude": -115.0814018, "altitude": 2718.832108}}
{"timestamp": "2025-12-21T08:34:13.060065", "type": "gps", "data": {"raw": "$GBGSV,2,2,05,45,70,235,27,3*46", "type": "$GBGSV", "timestamp": "2025-12-21T08:34:13.060062"}, "gps_position": {"latitude": 35.96840035, "longitude": -115.0814018, "altitude": 2718.832108}}
{"timestamp": "2025-12-21T08:34:13.060099", "type": "gps", "data": {"raw": "$GBGSV,1,1,02,21,47,316,20,36,56,044,19,5*78", "type": "$GBGSV", "timestamp": "2025-12-21T08:34:13.060096"}, "gps_position": {"latitude": 35.96840035, "longitude": -115.0814018, "altitude": 2718.832108}}
{"timestamp": "2025-12-21T08:34:13.060131", "type": "gps", "data": {"raw": "$GNGSA,A,3,03,04,07,08,09,16,26,30,,,,,0.8,0.5,0.6,1*3B", "type": "$GNGSA", "timestamp": "2025-12-21T08:34:13.060128"}, "gps_position": {"latitude": 35.96840035, "longitude": -115.0814018, "altitude": 2718.832108}}
{"timestamp": "2025-12-21T08:34:13.060163", "type": "gps", "data": {"raw": "$PSSGR,GSA,A,3,03,09,,,,,,,,,,,0.8,0.5,0.6,1,8*44", "type": "$PSSGR", "timestamp": "2025-12-21T08:34:13.060160"}, "gps_position": {"latitude": 35.96840035, "longitude": -115.0814018, "altitude": 2718.832108}}
{"timestamp": "2025-12-21T08:34:13.060194", "type": "gps", "data": {"raw": "$GNGSA,A,3,65,66,76,,,,,,,,,,0.8,0.5,0.6,2*3B", "type": "$GNGSA", "timestamp": "2025-12-21T08:34:13.060191"}, "gps_position": {"latitude": 35.96840035, "longitude": -115.0814018, "altitude": 2718.832108}}
{"timestamp": "2025-12-21T08:34:13.060225", "type": "gps", "data": {"raw": "$GNGSA,A,3,02,03,07,08,13,16,25,30,,,,,0.8,0.5,0.6,3*37", "type": "$GNGSA", "timestamp": "2025-12-21T08:34:13.060222"}, "gps_position": {"latitude": 35.96840035, "longitude": -115.0814018, "altitude": 2718.832108}}
{"timestamp": "2025-12-21T08:34:13.060256", "type": "gps", "data": {"raw": "$PSSGR,GSA,A,3,302,308,,,,,,,,,,,0.8,0.5,0.6,3,1*4F", "type": "$PSSGR", "timestamp": "2025-12-21T08:34:13.060253"}, "gps_position": {"latitude": 35.96840035, "longitude": -115.0814018, "altitude": 2718.832108}}
{"timestamp": "2025-12-21T08:34:13.060286", "type": "gps", "data": {"raw": "$GNGSA,A,3,19,21,22,36,45,,,,,,,,0.8,0.5,0.6,4*30", "type": "$GNGSA", "timestamp": "2025-12-21T08:34:13.060283"}, "gps_position": {"latitude": 35.96840035, "longitude": -115.0814018, "altitude": 2718.832108}}
{"timestamp": "2025-12-21T08:34:13.060317", "type": "gps", "data": {"raw": "$PSSGR,GSA,A,3,221,,,,,,,,,,,,0.8,0.5,0.6,4,5*77", "type": "$PSSGR", "timestamp": "2025-12-21T08:34:13.060314"}, "gps_position": {"latitude": 35.96840035, "longitude": -115.0814018, "altitude": 2718.832108}}
{"timestamp": "2025-12-21T08:34:13.060354", "type": "gps", "data": {"raw": "$GNVTG,,T,,M,0.0,N,0.0,K,A*3D", "type": "$GNVTG", "timestamp": "2025-12-21T08:34:13.060351"}, "gps_position": {"latitude": 35.96840035, "longitude": -115.0814018, "altitude": 2718.832108}}
{"timestamp": "2025-12-21T08:34:13.060387", "type": "gps", "data": {"raw": "$GNDTM,W84,,0000.000000,N,00000.000000,E,0.000,W84*41", "type": "$GNDTM", "timestamp": "2025-12-21T08:34:13.060384"}, "gps_position": {"latitude": 35.96840035, "longitude": -115.0814018, "altitude": 2718.832108}}
{"timestamp": "2025-12-21T08:34:13.060437", "type": "gps", "data": {"raw": "$GNRMC,163413.00,A,3558.104020,N,11504.884106,W,0.0,,211225,10.9,E,A,V*5E", "type": "$GNRMC", "timestamp": "2025-12-21T08:34:13.060415", "time": "163413.00", "status": "A", "latitude": "35.968400333333335", "longitude": "-115.08140176666667", "speed": "0.0", "track": ""}, "gps_position": {"latitude": 35.968400333333335, "longitude": -115.08140176666667, "altitude": 2718.832108}}
{"timestamp": "2025-12-21T08:34:13.060477", "type": "gps", "data": {"raw": "$GNGNS,163413.00,3558.104020,N,11504.884106,W,AAAANN,24,0.5,828.7,-28.2,,,V*1F", "type": "$GNGNS", "timestamp": "2025-12-21T08:34:13.060474"}, "gps_position": {"latitude": 35.968400333333335, "longitude": -115.08140176666667, "altitude": 2718.832108}}
{"timestamp": "2025-12-21T08:34:13.060530", "type": "gps", "data": {"raw": "$GNGGA,163413.00,3558.104020,N,11504.884106,W,1,12,0.5,828.7,M,-28.2,M,,*4A", "type": "$GNGGA", "timestamp": "2025-12-21T08:34:13.060511", "time": "163413.00", "latitude": "35.968400333333335", "longitude": "-115.08140176666667", "fix_quality": "1", "satellites": "12", "altitude": "828.7"}, "gps_position": {"latitude": 35.968400333333335, "longitude": -115.08140176666667, "altitude": 2718.832108}}
{"timestamp": "2025-12-21T08:34:13.060569", "type": "gps", "data": {"raw": "$PSMSG,magcal=PASS,bluesky=0*00", "type": "$PSMSG", "timestamp": "2025-12-21T08:34:13.060565"}, "gps_position": {"latitude": 35.968400333333335, "longitude": -115.08140176666667, "altitude": 2718.832108}}
{"timestamp": "2025-12-21T08:34:14.060735", "type": "gps", "data": {"raw": "$GPGSV,2,1,08,03,39,184,28,04,71,055,31,07,35,266,35,08,10,145,26,1*69", "type": "$GPGSV", "timestamp": "2025-12-21T08:34:14.060697"}, "gps_position": {"latitude": 35.968400333333335, "longitude": -115.08140176666667, "altitude": 2718.832108}}
{"timestamp": "2025-12-21T08:34:14.061328", "type": "gps", "data": {"raw": "$GPGSV,2,2,08,09,56,324,30,16,51,066,25,26,20,045,21,30,08,257,20,1*69", "type": "$GPGSV", "timestamp": "2025-12-21T08:34:14.061311"}, "gps_position": {"latitude": 35.968400333333335, "longitude": -115.08140176666667, "altitude": 2718.832108}}
{"timestamp": "2025-12-21T08:34:14.061455", "type": "gps", "data": {"raw": "$GPGSV,1,1,03,03,39,184,21,04,71,055,18,09,56,324,23,8*5C", "type": "$GPGSV", "timestamp": "2025-12-21T08:34:14.061449"}, "gps_position": {"latitude": 35.968400333333335, "longitude": -115.08140176666667, "altitude": 2718.832108}}
{"timestamp": "2025-12-21T08:34:14.061505", "type": "gps", "data": {"raw": "$GLGSV,1,1,03,02,70,005,22,12,80,008,30,01,47,126,25,1*4B", "type": "$GLGSV", "timestamp": "2025-12-21T08:34:14.061501"}, "gps_position": {"latitude": 35.968400333333335, "longitude": -115.08140176666667, "altitude": 2718.832108}}
{"timestamp": "2025-12-21T08:34:14.061546", "type": "gps", "data": {"raw": "$GAGSV,3,1,09,02,62,129,27,03,45,092,22,07,21,303,25,08,66,346,24,7*74", "type": "$GAGSV", "timestamp": "2025-12-21T08:34:14.061543"}, "gps_position": {"latitude": 35.968400333333335, "longitude": -115.08140176666667, "altitude": 2718.832108}}
{"timestamp": "2025-12-21T08:34:14.061586", "type": "gps", "data": {"raw": "$GAGSV,3,2,09,13,15,255,21,16,13,039,18,25,33,050,25,26,10,304,13,7*7F", "type": "$GAGSV", "timestamp": "2025-12-21T08:34:14.061579"}, "gps_position": {"latitude": 35.968400333333335, "longitude": -115.08140176666667, "altitude": 2718.832108}}
{"timestamp": "2025-12-21T08:34:14.061622", "type": "gps", "data": {"raw": "$GAGSV,3,3,09,30,26,191,24,7*42", "type": "$GAGSV", "timestamp": "2025-12-21T08:34:14.061619"}, "gps_position": {"latitude": 35.968400333333335, "longitude": -115.08140176666667, "altitude": 2718.832108}}
{"timestamp": "2025-12-21T08:34:14.061657", "type": "gps", "data": {"raw": "$GAGSV,1,1,04,02,62,129,20,08,66,346,20,13,15,255,18,25,33,050,15,1*7F", "type": "$GAGSV", "timestamp": "2025-12-21T08:34:14.061654"}, "gps_position": {"latitude": 35.968400333333335, "longitude": -115.08140176666667, "altitude": 2718.832108}}
{"timestamp": "2025-12-21T08:34:14.061690", "type": "gps", "data": {"raw": "$GBGSV,2,1,05,19,22,140,24,21,47,316,22,22,76,149,31,36,56,044,27,3*71", "type": "$GBGSV", "timestamp": "2025-12-21T08:34:14.061687"}, "gps_position": {"latitude": 35.968400333333335, "longitude": -115.08140176666667, "altitude": 2718.832108}}
{"timestamp": "2025-12-21T08:34:14.061844", "type": "gps", "data": {"raw": "$GBGSV,2,2,05,45,70,235,27,3*46", "type": "$GBGSV", "timestamp": "2025-12-21T08:34:14.061819"}, "gps_position": {"latitude": 35.968400333333335, "longitude": -115.08140176666667, "altitude": 2718.832108}}
{"timestamp": "2025-12-21T08:34:14.062041", "type": "gps", "data": {"raw": "$GBGSV,1,1,02,21,47,316,20,36,56,044,19,5*78", "type": "$GBGSV", "timestamp": "2025-12-21T08:34:14.062033"}, "gps_position": {"latitude": 35.968400333333335, "longitude": -115.08140176666667, "altitude": 2718.832108}}
{"timestamp": "2025-12-21T08:34:14.062417", "type": "gps", "data": {"raw": "$GNGSA,A,3,03,04,07,08,09,16,26,30,,,,,0.8,0.5,0.6,1*3B", "type": "$GNGSA", "timestamp": "2025-12-21T08:34:14.062408"}, "gps_position": {"latitude": 35.968400333333335, "longitude": -115.08140176666667, "altitude": 2718.832108}}
{"timestamp": "2025-12-21T08:34:14.062493", "type": "gps", "data": {"raw": "$PSSGR,GSA,A,3,03,09,,,,,,,,,,,0.8,0.5,0.6,1,8*44", "type": "$PSSGR", "timestamp": "2025-12-21T08:34:14.062489"}, "gps_position": {"latitude": 35.968400333333335, "longitude": -115.08140176666667, "altitude": 2718.832108}}
{"timestamp": "2025-12-21T08:34:14.062537", "type": "gps", "data": {"raw": "$GNGSA,A,3,65,66,76,,,,,,,,,,0.8,0.5,0.6,2*3B", "type": "$GNGSA", "timestamp": "2025-12-21T08:34:14.062533"}, "gps_position": {"latitude": 35.968400333333335, "longitude": -115.08140176666667, "altitude": 2718.832108}}
{"timestamp": "2025-12-21T08:34:14.062573", "type": "gps", "data": {"raw": "$GNGSA,A,3,02,03,07,08,13,16,25,30,,,,,0.8,0.5,0.6,3*37", "type": "$GNGSA", "timestamp": "2025-12-21T08:34:14.062569"}, "gps_position": {"latitude": 35.968400333333335, "longitude": -115.08140176666667, "altitude": 2718.832108}}
{"timestamp": "2025-12-21T08:34:14.062608", "type": "gps", "data": {"raw": "$PSSGR,GSA,A,3,302,308,,,,,,,,,,,0.8,0.5,0.6,3,1*4F", "type": "$PSSGR", "timestamp": "2025-12-21T08:34:14.062605"}, "gps_position": {"latitude": 35.968400333333335, "longitude": -115.08140176666667, "altitude": 2718.832108}}
{"timestamp": "2025-12-21T08:34:14.062641", "type": "gps", "data": {"raw": "$GNGSA,A,3,19,21,22,36,45,,,,,,,,0.8,0.5,0.6,4*30", "type": "$GNGSA", "timestamp": "2025-12-21T08:34:14.062638"}, "gps_position": {"latitude": 35.968400333333335, "longitude": -115.08140176666667, "altitude": 2718.832108}}
{"timestamp": "2025-12-21T08:34:14.062675", "type": "gps", "data": {"raw": "$PSSGR,GSA,A,3,221,,,,,,,,,,,,0.8,0.5,0.6,4,5*77", "type": "$PSSGR", "timestamp": "2025-12-21T08:34:14.062672"}, "gps_position": {"latitude": 35.968400333333335, "longitude": -115.08140176666667, "altitude": 2718.832108}}
{"timestamp": "2025-12-21T08:34:14.062706", "type": "gps", "data": {"raw": "$GNVTG,,T,,M,0.0,N,0.0,K,A*3D", "type": "$GNVTG", "timestamp": "2025-12-21T08:34:14.062704"}, "gps_position": {"latitude": 35.968400333333335, "longitude": -115.08140176666667, "altitude": 2718.832108}}
{"timestamp": "2025-12-21T08:34:14.063170", "type": "gps", "data": {"raw": "$GNDTM,W84,,0000.000000,N,00000.000000,E,0.000,W84*41", "type": "$GNDTM", "timestamp": "2025-12-21T08:34:14.063160"}, "gps_position": {"latitude": 35.968400333333335, "longitude": -115.08140176666667, "altitude": 2718.832108}}
{"timestamp": "2025-12-21T08:34:14.063364", "type": "gps", "data": {"raw": "$GNRMC,163414.00,A,3558.104020,N,11504.884106,W,0.0,,211225,10.9,E,A,V*59", "type": "$GNRMC", "timestamp": "2025-12-21T08:34:14.063336", "time": "163414.00", "status": "A", "latitude": "35.968400333333335", "longitude": "-115.08140176666667", "speed": "0.0", "track": ""}, "gps_position": {"latitude": 35.968400333333335, "longitude": -115.08140176666667, "altitude": 2718.832108}}
{"timestamp": "2025-12-21T08:34:14.063534", "type": "gps", "data": {"raw": "$GNGNS,163414.00,3558.104020,N,11504.884106,W,AAAANN,24,0.5,828.7,-28.2,,,V*18", "type": "$GNGNS", "timestamp": "2025-12-21T08:34:14.063527"}, "gps_position": {"latitude": 35.968400333333335, "longitude": -115.08140176666667, "altitude": 2718.832108}}
{"timestamp": "2025-12-21T08:34:14.063617", "type": "gps", "data": {"raw": "$GNGGA,163414.00,3558.104020,N,11504.884106,W,1,12,0.5,828.7,M,-28.2,M,,*4D", "type": "$GNGGA", "timestamp": "2025-12-21T08:34:14.063596", "time": "163414.00", "latitude": "35.968400333333335", "longitude": "-115.08140176666667", "fix_quality": "1", "satellites": "12", "altitude": "828.7"}, "gps_position": {"latitude": 35.968400333333335, "longitude": -115.08140176666667, "altitude": 2718.832108}}
{"timestamp": "2025-12-21T08:34:14.063668", "type": "gps", "data": {"raw": "$PSMSG,magcal=PASS,bluesky=0*00", "type": "$PSMSG", "timestamp": "2025-12-21T08:34:14.063664"}, "gps_position": {"latitude": 35.968400333333335, "longitude": -115.08140176666667, "altitude": 2718.832108}}
{"timestamp": "2025-12-21T08:34:15.028778", "type": "gps", "data": {"raw": "$GPGSV,2,1,08,03,39,184,28,04,71,055,30,07,35,266,35,08,10,145,25,1*6B", "type": "$GPGSV", "timestamp": "2025-12-21T08:34:15.028751"}, "gps_position": {"latitude": 35.968400333333335, "longitude": -115.08140176666667, "altitude": 2718.832108}}
{"timestamp": "2025-12-21T08:34:15.028980", "type": "gps", "data": {"raw": "$GPGSV,2,2,08,09,56,324,30,16,51,066,22,26,20,045,21,30,08,257,20,1*6E", "type": "$GPGSV", "timestamp": "2025-12-21T08:34:15.028970"}, "gps_position": {"latitude": 35.968400333333335, "longitude": -115.08140176666667, "altitude": 2718.832108}}
{"timestamp": "2025-12-21T08:34:15.029061", "type": "gps", "data": {"raw": "$GPGSV,1,1,03,03,39,184,20,04,71,055,18,09,56,324,20,8*5E", "type": "$GPGSV", "timestamp": "2025-12-21T08:34:15.029055"}, "gps_position": {"latitude": 35.968400333333335, "longitude": -115.08140176666667, "altitude": 2718.832108}}
{"timestamp": "2025-12-21T08:34:15.029119", "type": "gps", "data": {"raw": "$GLGSV,1,1,03,02,70,005,22,12,80,008,30,01,47,126,25,1*4B", "type": "$GLGSV", "timestamp": "2025-12-21T08:34:15.029114"}, "gps_position": {"latitude": 35.968400333333335, "longitude": -115.08140176666667, "altitude": 2718.832108}}
{"timestamp": "2025-12-21T08:34:15.029171", "type": "gps", "data": {"raw": "$GAGSV,3,1,09,02,62,129,29,03,45,092,21,07,21,303,25,08,66,346,25,7*78", "type": "$GAGSV", "timestamp": "2025-12-21T08:34:15.029166"}, "gps_position": {"latitude": 35.968400333333335, "longitude": -115.08140176666667, "altitude": 2718.832108}}
{"timestamp": "2025-12-21T08:34:15.029221", "type": "gps", "data": {"raw": "$GAGSV,3,2,09,13,15,255,21,16,13,039,18,25,33,050,23,26,10,304,13,7*79", "type": "$GAGSV", "timestamp": "2025-12-21T08:34:15.029217"}, "gps_position": {"latitude": 35.968400333333335, "longitude": -115.08140176666667, "altitude": 2718.832108}}
{"timestamp": "2025-12-21T08:34:15.029269", "type": "gps", "data": {"raw": "$GAGSV,3,3,09,30,26,191,24,7*42", "type": "$GAGSV", "timestamp": "2025-12-21T08:34:15.029265"}, "gps_position": {"latitude": 35.968400333333335, "longitude": -115.08140176666667, "altitude": 2718.832108}}
{"timestamp": "2025-12-21T08:34:15.029967", "type": "gps", "data": {"raw": "$GAGSV,1,1,04,02,62,129,20,08,66,346,20,13,15,255,18,25,33,050,15,1*7F", "type": "$GAGSV", "timestamp": "2025-12-21T08:34:15.029954"}, "gps_position": {"latitude": 35.968400333333335, "longitude": -115.08140176666667, "altitude": 2718.832108}}
{"timestamp": "2025-12-21T08:34:15.031366", "type": "gps", "data": {"raw": "$GBGSV,2,1,05,19,22,140,24,21,47,316,22,22,76,149,30,36,56,044,28,3*7F", "type": "$GBGSV", "timestamp": "2025-12-21T08:34:15.031353"}, "gps_position": {"latitude": 35.968400333333335, "longitude": -115.08140176666667, "altitude": 2718.832108}}
{"timestamp": "2025-12-21T08:34:15.031585", "type": "gps", "data": {"raw": "$GBGSV,2,2,05,45,70,235,27,3*46", "type": "$GBGSV", "timestamp": "2025-12-21T08:34:15.031577"}, "gps_position": {"latitude": 35.968400333333335, "longitude": -115.08140176666667, "altitude": 2718.832108}}
{"timestamp": "2025-12-21T08:34:15.033459", "type": "gps", "data": {"raw": "$GBGSV,1,1,02,21,47,316,21,36,56,044,20,5*73", "type": "$GBGSV", "timestamp": "2025-12-21T08:34:15.033449"}, "gps_position": {"latitude": 35.968400333333335, "longitude": -115.08140176666667, "altitude": 2718.832108}}
{"timestamp": "2025-12-21T08:34:15.035139", "type": "gps", "data": {"raw": "$GNGSA,A,3,03,04,07,08,09,16,26,30,,,,,0.8,0.5,0.6,1*3B", "type": "$GNGSA", "timestamp": "2025-12-21T08:34:15.035124"}, "gps_position": {"latitude": 35.968400333333335, "longitude": -115.08140176666667, "altitude": 2718.832108}}
{"timestamp": "2025-12-21T08:34:15.036043", "type": "gps", "data": {"raw": "$PSSGR,GSA,A,3,03,09,,,,,,,,,,,0.8,0.5,0.6,1,8*44", "type": "$PSSGR", "timestamp": "2025-12-21T08:34:15.036021"}, "gps_position": {"latitude": 35.968400333333335, "longitude": -115.08140176666667, "altitude": 2718.832108}}
{"timestamp": "2025-12-21T08:34:15.036242", "type": "gps", "data": {"raw": "$GNGSA,A,3,65,66,76,,,,,,,,,,0.8,0.5,0.6,2*3B", "type": "$GNGSA", "timestamp": "2025-12-21T08:34:15.036233"}, "gps_position": {"latitude": 35.968400333333335, "longitude": -115.08140176666667, "altitude": 2718.832108}}
{"timestamp": "2025-12-21T08:34:15.038515", "type": "gps", "data": {"raw": "$GNGSA,A,3,02,03,07,08,13,16,25,30,,,,,0.8,0.5,0.6,3*37", "type": "$GNGSA", "timestamp": "2025-12-21T08:34:15.038504"}, "gps_position": {"latitude": 35.968400333333335, "longitude": -115.08140176666667, "altitude": 2718.832108}}
{"timestamp": "2025-12-21T08:34:15.038728", "type": "gps", "data": {"raw": "$PSSGR,GSA,A,3,302,308,,,,,,,,,,,0.8,0.5,0.6,3,1*4F", "type": "$PSSGR", "timestamp": "2025-12-21T08:34:15.038720"}, "gps_position": {"latitude": 35.968400333333335, "longitude": -115.08140176666667, "altitude": 2718.832108}}
{"timestamp": "2025-12-21T08:34:15.038803", "type": "gps", "data": {"raw": "$GNGSA,A,3,19,21,22,36,45,,,,,,,,0.8,0.5,0.6,4*30", "type": "$GNGSA", "timestamp": "2025-12-21T08:34:15.038798"}, "gps_position": {"latitude": 35.968400333333335, "longitude": -115.08140176666667, "altitude": 2718.832108}}
{"timestamp": "2025-12-21T08:34:15.039823", "type": "gps", "data": {"raw": "$PSSGR,GSA,A,3,221,236,,,,,,,,,,,0.8,0.5,0.6,4,5*40", "type": "$PSSGR", "timestamp": "2025-12-21T08:34:15.039817"}, "gps_position": {"latitude": 35.968400333333335, "longitude": -115.08140176666667, "altitude": 2718.832108}}
{"timestamp": "2025-12-21T08:34:15.039887", "type": "gps", "data": {"raw": "$GNVTG,,T,,M,0.0,N,0.0,K,A*3D", "type": "$GNVTG", "timestamp": "2025-12-21T08:34:15.039883"}, "gps_position": {"latitude": 35.968400333333335, "longitude": -115.08140176666667, "altitude": 2718.832108}}
{"timestamp": "2025-12-21T08:34:15.040698", "type": "gps", "data": {"raw": "$GNDTM,W84,,0000.000000,N,00000.000000,E,0.000,W84*41", "type": "$GNDTM", "timestamp": "2025-12-21T08:34:15.040690"}, "gps_position": {"latitude": 35.968400333333335, "longitude": -115.08140176666667, "altitude": 2718.832108}}
{"timestamp": "2025-12-21T08:34:15.040798", "type": "gps", "data": {"raw": "$GNRMC,163415.00,A,3558.104020,N,11504.884105,W,0.0,,211225,10.9,E,A,V*5B", "type": "$GNRMC", "timestamp": "2025-12-21T08:34:15.040771", "time": "163415.00", "status": "A", "latitude": "35.968400333333335", "longitude": "-115.08140175", "speed": "0.0", "track": ""}, "gps_position": {"latitude": 35.968400333333335, "longitude": -115.08140175, "altitude": 2718.832108}}
{"timestamp": "2025-12-21T08:34:15.040862", "type": "gps", "data": {"raw": "$GNGNS,163415.00,3558.104020,N,11504.884105,W,AAAANN,24,0.5,828.7,-28.2,,,V*1A", "type": "$GNGNS", "timestamp": "2025-12-21T08:34:15.040857"}, "gps_position": {"latitude": 35.968400333333335, "longitude": -115.08140175, "altitude": 2718.832108}}
{"timestamp": "2025-12-21T08:34:15.042418", "type": "gps", "data": {"raw": "$GNGGA,163415.00,3558.104020,N,11504.884105,W,1,12,0.5,828.7,M,-28.2,M,,*4F", "type": "$GNGGA", "timestamp": "2025-12-21T08:34:15.042392", "time": "163415.00", "latitude": "35.968400333333335", "longitude": "-115.08140175", "fix_quality": "1", "satellites": "12", "altitude": "828.7"}, "gps_position": {"latitude": 35.968400333333335, "longitude": -115.08140175, "altitude": 2718.832108}}
{"timestamp": "2025-12-21T08:34:15.042494", "type": "gps", "data": {"raw": "$PSMSG,magcal=PASS,bluesky=0*00", "type": "$PSMSG", "timestamp": "2025-12-21T08:34:15.042488"}, "gps_position": {"latitude": 35.968400333333335, "longitude": -115.08140175, "altitude": 2718.832108}}
{"timestamp": "2025-12-21T08:34:16.055319", "type": "gps", "data": {"raw": "$GPGSV,2,1,08,03,39,184,29,04,71,055,32,07,35,266,35,08,10,145,25,1*68", "type": "$GPGSV", "timestamp": "2025-12-21T08:34:16.055297"}, "gps_position": {"latitude": 35.968400333333335, "longitude": -115.08140175, "altitude": 2718.832108}}
{"timestamp": "2025-12-21T08:34:16.055504", "type": "gps", "data": {"raw": "$GPGSV,2,2,08,09,56,324,30,16,51,066,25,26,20,045,21,30,08,257,20,1*69", "type": "$GPGSV", "timestamp": "2025-12-21T08:34:16.055495"}, "gps_position": {"latitude": 35.968400333333335, "longitude": -115.08140175, "altitude": 2718.832108}}
{"timestamp": "2025-12-21T08:34:16.055576", "type": "gps", "data": {"raw": "$GPGSV,1,1,04,03,39,184,20,04,71,055,17,09,56,324,20,27,16,115,14,8*64", "type": "$GPGSV", "timestamp": "2025-12-21T08:34:16.055571"}, "gps_position": {"latitude": 35.968400333333335, "longitude": -115.08140175, "altitude": 2718.832108}}
{"timestamp": "2025-12-21T08:34:16.055618", "type": "gps", "data": {"raw": "$GLGSV,1,1,03,02,70,005,22,12,80,008,29,01,47,126,25,1*43", "type": "$GLGSV", "timestamp": "2025-12-21T08:34:16.055614"}, "gps_position": {"latitude": 35.968400333333335, "longitude": -115.08140175, "altitude": 2718.832108}}
{"timestamp": "2025-12-21T08:34:16.055653", "type": "gps", "data": {"raw": "$GAGSV,3,1,09,02,62,129,29,03,45,092,21,07,21,303,25,08,66,346,25,7*78", "type": "$GAGSV", "timestamp": "2025-12-21T08:34:16.055650"}, "gps_position": {"latitude": 35.968400333333335, "longitude": -115.08140175, "altitude": 2718.832108}}
{"timestamp": "2025-12-21T08:34:16.055688", "type": "gps", "data": {"raw": "$GAGSV,3,2,09,13,15,255,19,16,13,039,18,25,33,050,23,26,10,304,13,7*72", "type": "$GAGSV", "timestamp": "2025-12-21T08:34:16.055685"}, "gps_position": {"latitude": 35.968400333333335, "longitude": -115.08140175, "altitude": 2718.832108}}
{"timestamp": "2025-12-21T08:34:16.055721", "type": "gps", "data": {"raw": "$GAGSV,3,3,09,30,26,191,23,7*45", "type": "$GAGSV", "timestamp": "2025-12-21T08:34:16.055718"}, "gps_position": {"latitude": 35.968400333333335, "longitude": -115.08140175, "altitude": 2718.832108}}
{"timestamp": "2025-12-21T08:34:16.055754", "type": "gps", "data": {"raw": "$GAGSV,1,1,04,02,62,129,20,08,66,346,20,13,15,255,18,25,33,050,15,1*7F", "type": "$GAGSV", "timestamp": "2025-12-21T08:34:16.055751"}, "gps_position": {"latitude": 35.968400333333335, "longitude": -115.08140175, "altitude": 2718.832108}}
{"timestamp": "2025-12-21T08:34:16.055787", "type": "gps", "data": {"raw": "$GBGSV,2,1,05,19,22,140,22,21,47,316,22,22,76,149,29,36,56,044,28,3*71", "type": "$GBGSV", "timestamp": "2025-12-21T08:34:16.055783"}, "gps_position": {"latitude": 35.968400333333335, "longitude": -115.08140175, "altitude": 2718.832108}}
{"timestamp": "2025-12-21T08:34:16.055818", "type": "gps", "data": {"raw": "$GBGSV,2,2,05,45,70,235,26,3*47", "type": "$GBGSV", "timestamp": "2025-12-21T08:34:16.055815"}, "gps_position": {"latitude": 35.968400333333335, "longitude": -115.08140175, "altitude": 2718.832108}}
{"timestamp": "2025-12-21T08:34:16.055849", "type": "gps", "data": {"raw": "$GBGSV,1,1,02,21,47,316,21,36,56,044,20,5*73", "type": "$GBGSV", "timestamp": "2025-12-21T08:34:16.055846"}, "gps_position": {"latitude": 35.968400333333335, "longitude": -115.08140175, "altitude": 2718.832108}}
{"timestamp": "2025-12-21T08:34:16.055881", "type": "gps", "data": {"raw": "$GNGSA,A,3,03,04,07,08,09,16,26,30,,,,,0.8,0.5,0.6,1*3B", "type": "$GNGSA", "timestamp": "2025-12-21T08:34:16.055878"}, "gps_position": {"latitude": 35.968400333333335, "longitude": -115.08140175, "altitude": 2718.832108}}
{"timestamp": "2025-12-21T08:34:16.055914", "type": "gps", "data": {"raw": "$PSSGR,GSA,A,3,03,09,,,,,,,,,,,0.8,0.5,0.6,1,8*44", "type": "$PSSGR", "timestamp": "2025-12-21T08:34:16.055911"}, "gps_position": {"latitude": 35.968400333333335, "longitude": -115.08140175, "altitude": 2718.832108}}
{"timestamp": "2025-12-21T08:34:16.055945", "type": "gps", "data": {"raw": "$GNGSA,A,3,65,66,76,,,,,,,,,,0.8,0.5,0.6,2*3B", "type": "$GNGSA", "timestamp": "2025-12-21T08:34:16.055942"}, "gps_position": {"latitude": 35.968400333333335, "longitude": -115.08140175, "altitude": 2718.832108}}
{"timestamp": "2025-12-21T08:34:16.055976", "type": "gps", "data": {"raw": "$GNGSA,A,3,02,03,07,08,13,16,25,30,,,,,0.8,0.5,0.6,3*37", "type": "$GNGSA", "timestamp": "2025-12-21T08:34:16.055973"}, "gps_position": {"latitude": 35.968400333333335, "longitude": -115.08140175, "altitude": 2718.832108}}
{"timestamp": "2025-12-21T08:34:16.056019", "type": "gps", "data": {"raw": "$PSSGR,GSA,A,3,302,308,,,,,,,,,,,0.8,0.5,0.6,3,1*4F", "type": "$PSSGR", "timestamp": "2025-12-21T08:34:16.056016"}, "gps_position": {"latitude": 35.968400333333335, "longitude": -115.08140175, "altitude": 2718.832108}}
{"timestamp": "2025-12-21T08:34:16.056053", "type": "gps", "data": {"raw": "$GNGSA,A,3,19,21,22,36,45,,,,,,,,0.8,0.5,0.6,4*30", "type": "$GNGSA", "timestamp": "2025-12-21T08:34:16.056050"}, "gps_position": {"latitude": 35.968400333333335, "longitude": -115.08140175, "altitude": 2718.832108}}
{"timestamp": "2025-12-21T08:34:16.056084", "type": "gps", "data": {"raw": "$PSSGR,GSA,A,3,221,236,,,,,,,,,,,0.8,0.5,0.6,4,5*40", "type": "$PSSGR", "timestamp": "2025-12-21T08:34:16.056081"}, "gps_position": {"latitude": 35.968400333333335, "longitude": -115.08140175, "altitude": 2718.832108}}
{"timestamp": "2025-12-21T08:34:16.056115", "type": "gps", "data": {"raw": "$GNVTG,,T,,M,0.0,N,0.0,K,A*3D", "type": "$GNVTG", "timestamp": "2025-12-21T08:34:16.056112"}, "gps_position": {"latitude": 35.968400333333335, "longitude": -115.08140175, "altitude": 2718.832108}}
{"timestamp": "2025-12-21T08:34:16.056146", "type": "gps", "data": {"raw": "$GNDTM,W84,,0000.000000,N,00000.000000,E,0.000,W84*41", "type": "$GNDTM", "timestamp": "2025-12-21T08:34:16.056143"}, "gps_position": {"latitude": 35.968400333333335, "longitude": -115.08140175, "altitude": 2718.832108}}
{"timestamp": "2025-12-21T08:34:16.056195", "type": "gps", "data": {"raw": "$GNRMC,163416.00,A,3558.104020,N,11504.884105,W,0.0,,211225,10.9,E,A,V*58", "type": "$GNRMC", "timestamp": "2025-12-21T08:34:16.056174", "time": "163416.00", "status": "A", "latitude": "35.968400333333335", "longitude": "-115.08140175", "speed": "0.0", "track": ""}, "gps_position": {"latitude": 35.968400333333335, "longitude": -115.08140175, "altitude": 2718.832108}}
{"timestamp": "2025-12-21T08:34:16.056236", "type": "gps", "data": {"raw": "$GNGNS,163416.00,3558.104020,N,11504.884105,W,AAAANN,24,0.5,828.7,-28.2,,,V*19", "type": "$GNGNS", "timestamp": "2025-12-21T08:34:16.056232"}, "gps_position": {"latitude": 35.968400333333335, "longitude": -115.08140175, "altitude": 2718.832108}}
{"timestamp": "2025-12-21T08:34:16.056281", "type": "gps", "data": {"raw": "$GNGGA,163416.00,3558.104020,N,11504.884105,W,1,12,0.5,828.7,M,-28.2,M,,*4C", "type": "$GNGGA", "timestamp": "2025-12-21T08:34:16.056266", "time": "163416.00", "latitude": "35.968400333333335", "longitude": "-115.08140175", "fix_quality": "1", "satellites": "12", "altitude": "828.7"}, "gps_position": {"latitude": 35.968400333333335, "longitude": -115.08140175, "altitude": 2718.832108}}
{"timestamp": "2025-12-21T08:34:16.056317", "type": "gps", "data": {"raw": "$PSMSG,magcal=PASS,bluesky=0*00", "type": "$PSMSG", "timestamp": "2025-12-21T08:34:16.056314"}, "gps_position": {"latitude": 35.968400333333335, "longitude": -115.08140175, "altitude": 2718.832108}}
{"timestamp": "2025-12-21T08:34:17.048441", "type": "gps", "data": {"raw": "$GPGSV,3,1,09,03,39,184,29,04,71,055,32,06,07,278,16,07,35,266,35,1*6D", "type": "$GPGSV", "timestamp": "2025-12-21T08:34:17.048423"}, "gps_position": {"latitude": 35.968400333333335, "longitude": -115.08140175, "altitude": 2718.832108}}
{"timestamp": "2025-12-21T08:34:17.048636", "type": "gps", "data": {"raw": "$GPGSV,3,2,09,08,10,145,26,09,56,324,30,16,51,066,26,26,20,045,21,1*6E", "type": "$GPGSV", "timestamp": "2025-12-21T08:34:17.048627"}, "gps_position": {"latitude": 35.968400333333335, "longitude": -115.08140175, "altitude": 2718.832108}}
{"timestamp": "2025-12-21T08:34:17.048702", "type": "gps", "data": {"raw": "$GPGSV,3,3,09,30,08,257,19,1*5E", "type": "$GPGSV", "timestamp": "2025-12-21T08:34:17.048697"}, "gps_position": {"latitude": 35.968400333333335, "longitude": -115.08140175, "altitude": 2718.832108}}
{"timestamp": "2025-12-21T08:34:17.048742", "type": "gps", "data": {"raw": "$GPGSV,1,1,04,03,39,184,20,04,71,055,17,09,56,324,21,27,16,115,14,8*65", "type": "$GPGSV", "timestamp": "2025-12-21T08:34:17.048738"}, "gps_position": {"latitude": 35.968400333333335, "longitude": -115.08140175, "altitude": 2718.832108}}
{"timestamp": "2025-12-21T08:34:17.048781", "type": "gps", "data": {"raw": "$GLGSV,1,1,03,02,70,005,19,12,80,008,29,01,47,126,25,1*4B", "type": "$GLGSV", "timestamp": "2025-12-21T08:34:17.048778"}, "gps_position": {"latitude": 35.968400333333335, "longitude": -115.08140175, "altitude": 2718.832108}}
{"timestamp": "2025-12-21T08:34:17.048817", "type": "gps", "data": {"raw": "$GAGSV,3,1,09,02,62,129,28,03,45,092,20,07,21,303,26,08,66,346,26,7*78", "type": "$GAGSV", "timestamp": "2025-12-21T08:34:17.048813"}, "gps_position": {"latitude": 35.968400333333335, "longitude": -115.08140175, "altitude": 2718.832108}}
{"timestamp": "2025-12-21T08:34:17.048849", "type": "gps", "data": {"raw": "$GAGSV,3,2,09,13,15,255,19,16,13,039,18,25,33,050,22,26,10,304,13,7*73", "type": "$GAGSV", "timestamp": "2025-12-21T08:34:17.048846"}, "gps_position": {"latitude": 35.968400333333335, "longitude": -115.08140175, "altitude": 2718.832108}}
{"timestamp": "2025-12-21T08:34:17.048882", "type": "gps", "data": {"raw": "$GAGSV,3,3,09,30,26,191,24,7*42", "type": "$GAGSV", "timestamp": "2025-12-21T08:34:17.048879"}, "gps_position": {"latitude": 35.968400333333335, "longitude": -115.08140175, "altitude": 2718.832108}}
{"timestamp": "2025-12-21T08:34:17.048916", "type": "gps", "data": {"raw": "$GAGSV,1,1,04,02,62,129,20,08,66,346,20,13,15,255,18,25,33,050,15,1*7F", "type": "$GAGSV", "timestamp": "2025-12-21T08:34:17.048913"}, "gps_position": {"latitude": 35.968400333333335, "longitude": -115.08140175, "altitude": 2718.832108}}
{"timestamp": "2025-12-21T08:34:17.048948", "type": "gps", "data": {"raw": "$GBGSV,2,1,05,19,22,140,23,21,47,316,22,22,76,149,29,36,56,044,28,3*70", "type": "$GBGSV", "timestamp": "2025-12-21T08:34:17.048945"}, "gps_position": {"latitude": 35.968400333333335, "longitude": -115.08140175, "altitude": 2718.832108}}
{"timestamp": "2025-12-21T08:34:17.048978", "type": "gps", "data": {"raw": "$GBGSV,2,2,05,45,70,235,26,3*47", "type": "$GBGSV", "timestamp": "2025-12-21T08:34:17.048975"}, "gps_position": {"latitude": 35.968400333333335, "longitude": -115.08140175, "altitude": 2718.832108}}
{"timestamp": "2025-12-21T08:34:17.049009", "type": "gps", "data": {"raw": "$GBGSV,1,1,02,21,47,316,21,36,56,044,20,5*73", "type": "$GBGSV", "timestamp": "2025-12-21T08:34:17.049007"}, "gps_position": {"latitude": 35.968400333333335, "longitude": -115.08140175, "altitude": 2718.832108}}
{"timestamp": "2025-12-21T08:34:17.049041", "type": "gps", "data": {"raw": "$GNGSA,A,3,03,04,06,07,08,09,16,26,30,,,,0.8,0.5,0.6,1*3D", "type": "$GNGSA", "timestamp": "2025-12-21T08:34:17.049038"}, "gps_position": {"latitude": 35.968400333333335, "longitude": -115.08140175, "altitude": 2718.832108}}
{"timestamp": "2025-12-21T08:34:17.049072", "type": "gps", "data": {"raw": "$PSSGR,GSA,A,3,03,09,,,,,,,,,,,0.8,0.5,0.6,1,8*44", "type": "$PSSGR", "timestamp": "2025-12-21T08:34:17.049069"}, "gps_position": {"latitude": 35.968400333333335, "longitude": -115.08140175, "altitude": 2718.832108}}
{"timestamp": "2025-12-21T08:34:17.049103", "type": "gps", "data": {"raw": "$GNGSA,A,3,65,66,76,,,,,,,,,,0.8,0.5,0.6,2*3B", "type": "$GNGSA", "timestamp": "2025-12-21T08:34:17.049100"}, "gps_position": {"latitude": 35.968400333333335, "longitude": -115.08140175, "altitude": 2718.832108}}
{"timestamp": "2025-12-21T08:34:17.049133", "type": "gps", "data": {"raw": "$GNGSA,A,3,02,03,07,08,13,16,25,30,,,,,0.8,0.5,0.6,3*37", "type": "$GNGSA", "timestamp": "2025-12-21T08:34:17.049130"}, "gps_position": {"latitude": 35.968400333333335, "longitude": -115.08140175, "altitude": 2718.832108}}
{"timestamp": "2025-12-21T08:34:17.049164", "type": "gps", "data": {"raw": "$PSSGR,GSA,A,3,302,308,,,,,,,,,,,0.8,0.5,0.6,3,1*4F", "type": "$PSSGR", "timestamp": "2025-12-21T08:34:17.049161"}, "gps_position": {"latitude": 35.968400333333335, "longitude": -115.08140175, "altitude": 2718.832108}}
{"timestamp": "2025-12-21T08:34:17.049196", "type": "gps", "data": {"raw": "$GNGSA,A,3,19,21,22,36,45,,,,,,,,0.8,0.5,0.6,4*30", "type": "$GNGSA", "timestamp": "2025-12-21T08:34:17.049193"}, "gps_position": {"latitude": 35.968400333333335, "longitude": -115.08140175, "altitude": 2718.832108}}
{"timestamp": "2025-12-21T08:34:17.049230", "type": "gps", "data": {"raw": "$PSSGR,GSA,A,3,221,236,,,,,,,,,,,0.8,0.5,0.6,4,5*40", "type": "$PSSGR", "timestamp": "2025-12-21T08:34:17.049227"}, "gps_position": {"latitude": 35.968400333333335, "longitude": -115.08140175, "altitude": 2718.832108}}
{"timestamp": "2025-12-21T08:34:17.049261", "type": "gps", "data": {"raw": "$GNVTG,,T,,M,0.0,N,0.0,K,A*3D", "type": "$GNVTG", "timestamp": "2025-12-21T08:34:17.049259"}, "gps_position": {"latitude": 35.968400333333335, "longitude": -115.08140175, "altitude": 2718.832108}}
{"timestamp": "2025-12-21T08:34:17.049292", "type": "gps", "data": {"raw": "$GNDTM,W84,,0000.000000,N,00000.000000,E,0.000,W84*41", "type": "$GNDTM", "timestamp": "2025-12-21T08:34:17.049290"}, "gps_position": {"latitude": 35.968400333333335, "longitude": -115.08140175, "altitude": 2718.832108}}
{"timestamp": "2025-12-21T08:34:17.049342", "type": "gps", "data": {"raw": "$GNRMC,163417.00,A,3558.104020,N,11504.884104,W,0.0,,211225,10.9,E,A,V*58", "type": "$GNRMC", "timestamp": "2025-12-21T08:34:17.049321", "time": "163417.00", "status": "A", "latitude": "35.968400333333335", "longitude": "-115.08140173333334", "speed": "0.0", "track": ""}, "gps_position": {"latitude": 35.968400333333335, "longitude": -115.08140173333334, "altitude": 2718.832108}}
{"timestamp": "2025-12-21T08:34:17.049381", "type": "gps", "data": {"raw": "$GNGNS,163417.00,3558.104020,N,11504.884104,W,AAAANN,25,0.5,828.7,-28.2,,,V*18", "type": "$GNGNS", "timestamp": "2025-12-21T08:34:17.049378"}, "gps_position": {"latitude": 35.968400333333335, "longitude": -115.08140173333334, "altitude": 2718.832108}}
{"timestamp": "2025-12-21T08:34:17.049426", "type": "gps", "data": {"raw": "$GNGGA,163417.00,3558.104020,N,11504.884104,W,1,12,0.5,828.7,M,-28.2,M,,*4C", "type": "$GNGGA", "timestamp": "2025-12-21T08:34:17.049412", "time": "163417.00", "latitude": "35.968400333333335", "longitude": "-115.08140173333334", "fix_quality": "1", "satellites": "12", "altitude": "828.7"}, "gps_position": {"latitude": 35.968400333333335, "longitude": -115.08140173333334, "altitude": 2718.832108}}
{"timestamp": "2025-12-21T08:34:17.049463", "type": "gps", "data": {"raw": "$PSMSG,magcal=PASS,bluesky=0*00", "type": "$PSMSG", "timestamp": "2025-12-21T08:34:17.049460"}, "gps_position": {"latitude": 35.968400333333335, "longitude": -115.08140173333334, "altitude": 2718.832108}}
{"timestamp": "2025-12-21T08:34:18.052034", "type": "gps", "data": {"raw": "$GPGSV,3,1,09,03,39,184,29,04,71,055,30,06,07,278,16,07,35,266,35,1*6F", "type": "$GPGSV", "timestamp": "2025-12-21T08:34:18.051960"}, "gps_position": {"latitude": 35.968400333333335, "longitude": -115.08140173333334, "altitude": 2718.832108}}
{"timestamp": "2025-12-21T08:34:18.052283", "type": "gps", "data": {"raw": "$GPGSV,3,2,09,08,10,145,25,09,56,324,30,16,51,066,26,26,20,045,22,1*6E", "type": "$GPGSV", "timestamp": "2025-12-21T08:34:18.052271"}, "gps_position": {"latitude": 35.968400333333335, "longitude": -115.08140173333334, "altitude": 2718.832108}}
{"timestamp": "2025-12-21T08:34:18.052369", "type": "gps", "data": {"raw": "$GPGSV,3,3,09,30,08,257,19,1*5E", "type": "$GPGSV", "timestamp": "2025-12-21T08:34:18.052363"}, "gps_position": {"latitude": 35.968400333333335, "longitude": -115.08140173333334, "altitude": 2718.832108}}
{"timestamp": "2025-12-21T08:34:18.052424", "type": "gps", "data": {"raw": "$GPGSV,1,1,04,03,39,184,20,04,71,055,17,09,56,324,21,27,16,115,14,8*65", "type": "$GPGSV", "timestamp": "2025-12-21T08:34:18.052420"}, "gps_position": {"latitude": 35.968400333333335, "longitude": -115.08140173333334, "altitude": 2718.832108}}
{"timestamp": "2025-12-21T08:34:18.052469", "type": "gps", "data": {"raw": "$GLGSV,1,1,03,02,70,005,19,12,80,008,29,01,47,126,27,1*49", "type": "$GLGSV", "timestamp": "2025-12-21T08:34:18.052465"}, "gps_position": {"latitude": 35.968400333333335, "longitude": -115.08140173333334, "altitude": 2718.832108}}
{"timestamp": "2025-12-21T08:34:18.052519", "type": "gps", "data": {"raw": "$GAGSV,3,1,09,02,62,129,27,03,45,092,20,07,21,303,24,08,66,346,26,7*75", "type": "$GAGSV", "timestamp": "2025-12-21T08:34:18.052515"}, "gps_position": {"latitude": 35.968400333333335, "longitude": -115.08140173333334, "altitude": 2718.832108}}
{"timestamp": "2025-12-21T08:34:18.052569", "type": "gps", "data": {"raw": "$GAGSV,3,2,09,13,15,255,20,16,13,039,18,25,33,050,24,26,10,304,13,7*7F", "type": "$GAGSV", "timestamp": "2025-12-21T08:34:18.052565"}, "gps_position": {"latitude": 35.968400333333335, "longitude": -115.08140173333334, "altitude": 2718.832108}}
{"timestamp": "2025-12-21T08:34:18.052608", "type": "gps", "data": {"raw": "$GAGSV,3,3,09,30,26,191,23,7*45", "type": "$GAGSV", "timestamp": "2025-12-21T08:34:18.052605"}, "gps_position": {"latitude": 35.968400333333335, "longitude": -115.08140173333334, "altitude": 2718.832108}}
{"timestamp": "2025-12-21T08:34:18.052646", "type": "gps", "data": {"raw": "$GAGSV,1,1,04,02,62,129,20,08,66,346,19,13,15,255,20,25,33,050,15,1*7E", "type": "$GAGSV", "timestamp": "2025-12-21T08:34:18.052642"}, "gps_position": {"latitude": 35.968400333333335, "longitude": -115.08140173333334, "altitude": 2718.832108}}
{"timestamp": "2025-12-21T08:34:18.052687", "type": "gps", "data": {"raw": "$GBGSV,2,1,05,19,22,140,23,21,47,316,22,22,76,149,30,36,56,044,28,3*78", "type": "$GBGSV", "timestamp": "2025-12-21T08:34:18.052682"}, "gps_position": {"latitude": 35.968400333333335, "longitude": -115.08140173333334, "altitude": 2718.832108}}
{"timestamp": "2025-12-21T08:34:18.052730", "type": "gps", "data": {"raw": "$GBGSV,2,2,05,45,70,235,26,3*47", "type": "$GBGSV", "timestamp": "2025-12-21T08:34:18.052726"}, "gps_position": {"latitude": 35.968400333333335, "longitude": -115.08140173333334, "altitude": 2718.832108}}
{"timestamp": "2025-12-21T08:34:18.052773", "type": "gps", "data": {"raw": "$GBGSV,1,1,03,21,47,316,21,22,76,149,15,36,56,044,20,5*4B", "type": "$GBGSV", "timestamp": "2025-12-21T08:34:18.052769"}, "gps_position": {"latitude": 35.968400333333335, "longitude": -115.08140173333334, "altitude": 2718.832108}}
{"timestamp": "2025-12-21T08:34:18.052814", "type": "gps", "data": {"raw": "$GNGSA,A,3,03,04,06,07,08,09,16,26,30,,,,0.8,0.5,0.6,1*3D", "type": "$GNGSA", "timestamp": "2025-12-21T08:34:18.052810"}, "gps_position": {"latitude": 35.968400333333335, "longitude": -115.08140173333334, "altitude": 2718.832108}}
{"timestamp": "2025-12-21T08:34:18.052853", "type": "gps", "data": {"raw": "$PSSGR,GSA,A,3,03,09,,,,,,,,,,,0.8,0.5,0.6,1,8*44", "type": "$PSSGR", "timestamp": "2025-12-21T08:34:18.052850"}, "gps_position": {"latitude": 35.968400333333335, "longitude": -115.08140173333334, "altitude": 2718.832108}}
{"timestamp": "2025-12-21T08:34:18.052895", "type": "gps", "data": {"raw": "$GNGSA,A,3,65,66,76,,,,,,,,,,0.8,0.5,0.6,2*3B", "type": "$GNGSA", "timestamp": "2025-12-21T08:34:18.052891"}, "gps_position": {"latitude": 35.968400333333335, "longitude": -115.08140173333334, "altitude": 2718.832108}}
{"timestamp": "2025-12-21T08:34:18.052930", "type": "gps", "data": {"raw": "$GNGSA,A,3,02,03,07,08,13,16,25,30,,,,,0.8,0.5,0.6,3*37", "type": "$GNGSA", "timestamp": "2025-12-21T08:34:18.052927"}, "gps_position": {"latitude": 35.968400333333335, "longitude": -115.08140173333334, "altitude": 2718.832108}}
{"timestamp": "2025-12-21T08:34:18.052979", "type": "gps", "data": {"raw": "$PSSGR,GSA,A,3,302,308,,,,,,,,,,,0.8,0.5,0.6,3,1*4F", "type": "$PSSGR", "timestamp": "2025-12-21T08:34:18.052974"}, "gps_position": {"latitude": 35.968400333333335, "longitude": -115.08140173333334, "altitude": 2718.832108}}
{"timestamp": "2025-12-21T08:34:18.053016", "type": "gps", "data": {"raw": "$GNGSA,A,3,19,21,22,36,45,,,,,,,,0.8,0.5,0.6,4*30", "type": "$GNGSA", "timestamp": "2025-12-21T08:34:18.053013"}, "gps_position": {"latitude": 35.968400333333335, "longitude": -115.08140173333334, "altitude": 2718.832108}}
{"timestamp": "2025-12-21T08:34:18.053048", "type": "gps", "data": {"raw": "$PSSGR,GSA,A,3,221,236,,,,,,,,,,,0.8,0.5,0.6,4,5*40", "type": "$PSSGR", "timestamp": "2025-12-21T08:34:18.053045"}, "gps_position": {"latitude": 35.968400333333335, "longitude": -115.08140173333334, "altitude": 2718.832108}}
{"timestamp": "2025-12-21T08:34:18.053093", "type": "gps", "data": {"raw": "$GNVTG,,T,,M,0.0,N,0.0,K,A*3D", "type": "$GNVTG", "timestamp": "2025-12-21T08:34:18.053090"}, "gps_position": {"latitude": 35.968400333333335, "longitude": -115.08140173333334, "altitude": 2718.832108}}
{"timestamp": "2025-12-21T08:34:18.053129", "type": "gps", "data": {"raw": "$GNDTM,W84,,0000.000000,N,00000.000000,E,0.000,W84*41", "type": "$GNDTM", "timestamp": "2025-12-21T08:34:18.053126"}, "gps_position": {"latitude": 35.968400333333335, "longitude": -115.08140173333334, "altitude": 2718.832108}}
{"timestamp": "2025-12-21T08:34:18.053182", "type": "gps", "data": {"raw": "$GNRMC,163418.00,A,3558.104020,N,11504.884104,W,0.0,,211225,10.9,E,A,V*57", "type": "$GNRMC", "timestamp": "2025-12-21T08:34:18.053158", "time": "163418.00", "status": "A", "latitude": "35.968400333333335", "longitude": "-115.08140173333334", "speed": "0.0", "track": ""}, "gps_position": {"latitude": 35.968400333333335, "longitude": -115.08140173333334, "altitude": 2718.832108}}
{"timestamp": "2025-12-21T08:34:18.053225", "type": "gps", "data": {"raw": "$GNGNS,163418.00,3558.104020,N,11504.884104,W,AAAANN,25,0.5,828.7,-28.2,,,V*17", "type": "$GNGNS", "timestamp": "2025-12-21T08:34:18.053221"}, "gps_position": {"latitude": 35.968400333333335, "longitude": -115.08140173333334, "altitude": 2718.832108}}
{"timestamp": "2025-12-21T08:34:18.053270", "type": "gps", "data": {"raw": "$GNGGA,163418.00,3558.104020,N,11504.884104,W,1,12,0.5,828.7,M,-28.2,M,,*43", "type": "$GNGGA", "timestamp": "2025-12-21T08:34:18.053255", "time": "163418.00", "latitude": "35.968400333333335", "longitude": "-115.08140173333334", "fix_quality": "1", "satellites": "12", "altitude": "828.7"}, "gps_position": {"latitude": 35.968400333333335, "longitude": -115.08140173333334, "altitude": 2718.832108}}
{"timestamp": "2025-12-21T08:34:18.053307", "type": "gps", "data": {"raw": "$PSMSG,magcal=PASS,bluesky=0*00", "type": "$PSMSG", "timestamp": "2025-12-21T08:34:18.053304"}, "gps_position": {"latitude": 35.968400333333335, "longitude": -115.08140173333334, "altitude": 2718.832108}}
{"timestamp": "2025-12-21T08:34:19.055133", "type": "gps", "data": {"raw": "$GPGSV,3,1,09,03,39,184,29,04,71,055,29,06,07,278,16,07,35,266,35,1*67", "type": "$GPGSV", "timestamp": "2025-12-21T08:34:19.055114"}, "gps_position": {"latitude": 35.968400333333335, "longitude": -115.08140173333334, "altitude": 2718.832108}}
{"timestamp": "2025-12-21T08:34:19.055310", "type": "gps", "data": {"raw": "$GPGSV,3,2,09,08,10,145,26,09,56,324,30,16,51,066,23,26,20,045,22,1*68", "type": "$GPGSV", "timestamp": "2025-12-21T08:34:19.055302"}, "gps_position": {"latitude": 35.968400333333335, "longitude": -115.08140173333334, "altitude": 2718.832108}}
{"timestamp": "2025-12-21T08:34:19.055373", "type": "gps", "data": {"raw": "$GPGSV,3,3,09,30,08,257,19,1*5E", "type": "$GPGSV", "timestamp": "2025-12-21T08:34:19.055369"}, "gps_position": {"latitude": 35.968400333333335, "longitude": -115.08140173333334, "altitude": 2718.832108}}
{"timestamp": "2025-12-21T08:34:19.055415", "type": "gps", "data": {"raw": "$GPGSV,1,1,04,03,39,184,21,04,71,055,17,09,56,324,21,27,16,115,14,8*64", "type": "$GPGSV", "timestamp": "2025-12-21T08:34:19.055412"}, "gps_position": {"latitude": 35.968400333333335, "longitude": -115.08140173333334, "altitude": 2718.832108}}
{"timestamp": "2025-12-21T08:34:19.055559", "type": "gps", "data": {"raw": "$GLGSV,1,1,03,02,70,005,19,12,80,008,29,01,47,126,27,1*49", "type": "$GLGSV", "timestamp": "2025-12-21T08:34:19.055552"}, "gps_position": {"latitude": 35.968400333333335, "longitude": -115.08140173333334, "altitude": 2718.832108}}
{"timestamp": "2025-12-21T08:34:19.055688", "type": "gps", "data": {"raw": "$GAGSV,3,1,09,02,62,129,26,03,45,092,20,07,21,303,25,08,66,346,26,7*75", "type": "$GAGSV", "timestamp": "2025-12-21T08:34:19.055681"}, "gps_position": {"latitude": 35.968400333333335, "longitude": -115.08140173333334, "altitude": 2718.832108}}
{"timestamp": "2025-12-21T08:34:19.055748", "type": "gps", "data": {"raw": "$GAGSV,3,2,09,13,15,255,21,16,13,039,18,25,33,050,22,26,10,304,12,7*79", "type": "$GAGSV", "timestamp": "2025-12-21T08:34:19.055743"}, "gps_position": {"latitude": 35.968400333333335, "longitude": -115.08140173333334, "altitude": 2718.832108}}
{"timestamp": "2025-12-21T08:34:19.055788", "type": "gps", "data": {"raw": "$GAGSV,3,3,09,30,26,191,24,7*42", "type": "$GAGSV", "timestamp": "2025-12-21T08:34:19.055784"}, "gps_position": {"latitude": 35.968400333333335, "longitude": -115.08140173333334, "altitude": 2718.832108}}
{"timestamp": "2025-12-21T08:34:19.055824", "type": "gps", "data": {"raw": "$GAGSV,1,1,04,02,62,129,20,08,66,346,19,13,15,255,20,25,33,050,15,1*7E", "type": "$GAGSV", "timestamp": "2025-12-21T08:34:19.055821"}, "gps_position": {"latitude": 35.968400333333335, "longitude": -115.08140173333334, "altitude": 2718.832108}}
{"timestamp": "2025-12-21T08:34:19.055857", "type": "gps", "data": {"raw": "$GBGSV,2,1,05,19,22,140,23,21,47,316,22,22,76,149,30,36,56,044,27,3*77", "type": "$GBGSV", "timestamp": "2025-12-21T08:34:19.055854"}, "gps_position": {"latitude": 35.968400333333335, "longitude": -115.08140173333334, "altitude": 2718.832108}}
{"timestamp": "2025-12-21T08:34:19.055889", "type": "gps", "data": {"raw": "$GBGSV,2,2,05,45,70,235,27,3*46", "type": "$GBGSV", "timestamp": "2025-12-21T08:34:19.055886"}, "gps_position": {"latitude": 35.968400333333335, "longitude": -115.08140173333334, "altitude": 2718.832108}}
{"timestamp": "2025-12-21T08:34:19.055920", "type": "gps", "data": {"raw": "$GBGSV,1,1,03,21,47,316,19,22,76,149,15,36,56,044,17,5*44", "type": "$GBGSV", "timestamp": "2025-12-21T08:34:19.055917"}, "gps_position": {"latitude": 35.968400333333335, "longitude": -115.08140173333334, "altitude": 2718.832108}}
{"timestamp": "2025-12-21T08:34:19.055953", "type": "gps", "data": {"raw": "$GNGSA,A,3,03,04,06,07,08,09,16,26,30,,,,0.8,0.5,0.6,1*3D", "type": "$GNGSA", "timestamp": "2025-12-21T08:34:19.055950"}, "gps_position": {"latitude": 35.968400333333335, "longitude": -115.08140173333334, "altitude": 2718.832108}}
{"timestamp": "2025-12-21T08:34:19.055984", "type": "gps", "data": {"raw": "$PSSGR,GSA,A,3,03,09,,,,,,,,,,,0.8,0.5,0.6,1,8*44", "type": "$PSSGR", "timestamp": "2025-12-21T08:34:19.055981"}, "gps_position": {"latitude": 35.968400333333335, "longitude": -115.08140173333334, "altitude": 2718.832108}}
{"timestamp": "2025-12-21T08:34:19.056016", "type": "gps", "data": {"raw": "$GNGSA,A,3,65,66,76,,,,,,,,,,0.8,0.5,0.6,2*3B", "type": "$GNGSA", "timestamp": "2025-12-21T08:34:19.056013"}, "gps_position": {"latitude": 35.968400333333335, "longitude": -115.08140173333334, "altitude": 2718.832108}}
{"timestamp": "2025-12-21T08:34:19.056047", "type": "gps", "data": {"raw": "$GNGSA,A,3,02,03,07,08,13,16,25,26,30,,,,0.8,0.5,0.6,3*33", "type": "$GNGSA", "timestamp": "2025-12-21T08:34:19.056044"}, "gps_position": {"latitude": 35.968400333333335, "longitude": -115.08140173333334, "altitude": 2718.832108}}
{"timestamp": "2025-12-21T08:34:19.056078", "type": "gps", "data": {"raw": "$PSSGR,GSA,A,3,302,308,,,,,,,,,,,0.8,0.5,0.6,3,1*4F", "type": "$PSSGR", "timestamp": "2025-12-21T08:34:19.056075"}, "gps_position": {"latitude": 35.968400333333335, "longitude": -115.08140173333334, "altitude": 2718.832108}}
{"timestamp": "2025-12-21T08:34:19.056109", "type": "gps", "data": {"raw": "$GNGSA,A,3,19,21,22,36,45,,,,,,,,0.8,0.5,0.6,4*30", "type": "$GNGSA", "timestamp": "2025-12-21T08:34:19.056107"}, "gps_position": {"latitude": 35.968400333333335, "longitude": -115.08140173333334, "altitude": 2718.832108}}
{"timestamp": "2025-12-21T08:34:19.056141", "type": "gps", "data": {"raw": "$PSSGR,GSA,A,3,221,236,,,,,,,,,,,0.8,0.5,0.6,4,5*40", "type": "$PSSGR", "timestamp": "2025-12-21T08:34:19.056138"}, "gps_position": {"latitude": 35.968400333333335, "longitude": -115.08140173333334, "altitude": 2718.832108}}
{"timestamp": "2025-12-21T08:34:19.056172", "type": "gps", "data": {"raw": "$GNVTG,,T,,M,0.0,N,0.0,K,A*3D", "type": "$GNVTG", "timestamp": "2025-12-21T08:34:19.056170"}, "gps_position": {"latitude": 35.968400333333335, "longitude": -115.08140173333334, "altitude": 2718.832108}}
{"timestamp": "2025-12-21T08:34:19.056206", "type": "gps", "data": {"raw": "$GNDTM,W84,,0000.000000,N,00000.000000,E,0.000,W84*41", "type": "$GNDTM", "timestamp": "2025-12-21T08:34:19.056203"}, "gps_position": {"latitude": 35.968400333333335, "longitude": -115.08140173333334, "altitude": 2718.832108}}
{"timestamp": "2025-12-21T08:34:19.056255", "type": "gps", "data": {"raw": "$GNRMC,163419.00,A,3558.104019,N,11504.884103,W,0.0,,211225,10.9,E,A,V*5B", "type": "$GNRMC", "timestamp": "2025-12-21T08:34:19.056235", "time": "163419.00", "status": "A", "latitude": "35.96840031666667", "longitude": "-115.08140171666666", "speed": "0.0", "track": ""}, "gps_position": {"latitude": 35.96840031666667, "longitude": -115.08140171666666, "altitude": 2718.832108}}
{"timestamp": "2025-12-21T08:34:19.056296", "type": "gps", "data": {"raw": "$GNGNS,163419.00,3558.104019,N,11504.884103,W,AAAANN,26,0.5,828.7,-28.2,,,V*18", "type": "$GNGNS", "timestamp": "2025-12-21T08:34:19.056293"}, "gps_position": {"latitude": 35.96840031666667, "longitude": -115.08140171666666, "altitude": 2718.832108}}
{"timestamp": "2025-12-21T08:34:19.056340", "type": "gps", "data": {"raw": "$GNGGA,163419.00,3558.104019,N,11504.884103,W,1,12,0.5,828.7,M,-28.2,M,,*4F", "type": "$GNGGA", "timestamp": "2025-12-21T08:34:19.056326", "time": "163419.00", "latitude": "35.96840031666667", "longitude": "-115.08140171666666", "fix_quality": "1", "satellites": "12", "altitude": "828.7"}, "gps_position": {"latitude": 35.96840031666667, "longitude": -115.08140171666666, "altitude": 2718.832108}}
{"timestamp": "2025-12-21T08:34:19.056378", "type": "gps", "data": {"raw": "$PSMSG,magcal=PASS,bluesky=0*00", "type": "$PSMSG", "timestamp": "2025-12-21T08:34:19.056375"}, "gps_position": {"latitude": 35.96840031666667, "longitude": -115.08140171666666, "altitude": 2718.832108}}
{"timestamp": "2025-12-21T08:34:20.040097", "type": "gps", "data": {"raw": "$GPGSV,3,1,09,03,39,184,29,04,71,055,30,06,07,278,16,07,35,266,35,1*6F", "type": "$GPGSV", "timestamp": "2025-12-21T08:34:20.040079"}, "gps_position": {"latitude": 35.96840031666667, "longitude": -115.08140171666666, "altitude": 2718.832108}}
