{"timestamp": "2025-12-21T08:32:46.036767", "type": "gps", "data": {"raw": "$GPGSV,3,1,09,03,39,184,20,04,71,055,27,07,35,266,29,08,10,145,23,1*6E", "type": "$GPGSV", "timestamp": "2025-12-21T08:32:46.036745"}, "gps_position": null}
{"timestamp": "2025-12-21T08:32:46.036989", "type": "gps", "data": {"raw": "$GPGSV,3,2,09,09,56,324,30,16,51,066,25,26,20,045,15,27,16,115,14,1*65", "type": "$GPGSV", "timestamp": "2025-12-21T08:32:46.036983"}, "gps_position": null}
{"timestamp": "2025-12-21T08:32:46.037037", "type": "gps", "data": {"raw": "$GPGSV,3,3,09,30,08,257,20,1*54", "type": "$GPGSV", "timestamp": "2025-12-21T08:32:46.037033"}, "gps_position": null}
{"timestamp": "2025-12-21T08:32:46.037072", "type": "gps", "data": {"raw": "$GPGSV,1,1,03,03,39,184,19,04,71,055,14,09,56,324,24,8*5C", "type": "$GPGSV", "timestamp": "2025-12-21T08:32:46.037069"}, "gps_position": null}
{"timestamp": "2025-12-21T08:32:46.037105", "type": "gps", "data": {"raw": "$GLGSV,1,1,04,02,70,005,17,13,44,220,17,12,81,007,29,01,47,126,17,1*79", "type": "$GLGSV", "timestamp": "2025-12-21T08:32:46.037101"}, "gps_position": null}
{"timestamp": "2025-12-21T08:32:46.037136", "type": "gps", "data": {"raw": "$GAGSV,3,1,09,02,62,129,30,03,45,092,16,07,21,303,19,08,66,346,26,7*78", "type": "$GAGSV", "timestamp": "2025-12-21T08:32:46.037133"}, "gps_position": null}
{"timestamp": "2025-12-21T08:32:46.037168", "type": "gps", "data": {"raw": "$GAGSV,3,2,09,13,15,255,16,16,13,039,13,25,33,050,17,26,10,304,15,7*77", "type": "$GAGSV", "timestamp": "2025-12-21T08:32:46.037165"}, "gps_position": null}
{"timestamp": "2025-12-21T08:32:46.037209", "type": "gps", "data": {"raw": "$GAGSV,3,3,09,30,26,191,17,7*42", "type": "$GAGSV", "timestamp": "2025-12-21T08:32:46.037203"}, "gps_position": null}
{"timestamp": "2025-12-21T08:32:46.037247", "type": "gps", "data": {"raw": "$GAGSV,1,1,04,02,62,129,15,03,45,092,17,13,15,255,19,30,26,191,16,1*73", "type": "$GAGSV", "timestamp": "2025-12-21T08:32:46.037244"}, "gps_position": null}
{"timestamp": "2025-12-21T08:32:46.037279", "type": "gps", "data": {"raw": "$GBGSV,2,1,05,19,22,140,17,21,47,316,28,22,76,149,30,36,56,044,25,3*78", "type": "$GBGSV", "timestamp": "2025-12-21T08:32:46.037276"}, "gps_position": null}
{"timestamp": "2025-12-21T08:32:46.037308", "type": "gps", "data": {"raw": "$GBGSV,2,2,05,45,70,235,27,3*46", "type": "$GBGSV", "timestamp": "2025-12-21T08:32:46.037305"}, "gps_position": null}
{"timestamp": "2025-12-21T08:32:46.037337", "type": "gps", "data": {"raw": "$GBGSV,1,1,02,36,56,044,21,45,70,235,18,5*7E", "type": "$GBGSV", "timestamp": "2025-12-21T08:32:46.037334"}, "gps_position": null}
{"timestamp": "2025-12-21T08:32:46.037365", "type": "gps", "data": {"raw": "$GNGSA,A,3,03,04,07,08,09,16,26,27,30,,,,0.9,0.6,0.6,1*3C", "type": "$GNGSA", "timestamp": "2025-12-21T08:32:46.037362"}, "gps_position": null}
{"timestamp": "2025-12-21T08:32:46.037393", "type": "gps", "data": {"raw": "$PSSGR,GSA,A,3,09,,,,,,,,,,,,0.9,0.6,0.6,1,8*45", "type": "$PSSGR", "timestamp": "2025-12-21T08:32:46.037390"}, "gps_position": null}
{"timestamp": "2025-12-21T08:32:46.037422", "type": "gps", "data": {"raw": "$GNGSA,A,3,65,76,77,,,,,,,,,,0.9,0.6,0.6,2*39", "type": "$GNGSA", "timestamp": "2025-12-21T08:32:46.037419"}, "gps_position": null}
{"timestamp": "2025-12-21T08:32:46.037860", "type": "gps", "data": {"raw": "$GNGSA,A,3,02,07,08,13,16,25,30,,,,,,0.9,0.6,0.6,3*36", "type": "$GNGSA", "timestamp": "2025-12-21T08:32:46.037853"}, "gps_position": null}
{"timestamp": "2025-12-21T08:32:46.038019", "type": "gps", "data": {"raw": "$PSSGR,GSA,A,3,313,,,,,,,,,,,,0.9,0.6,0.6,3,1*76", "type": "$PSSGR", "timestamp": "2025-12-21T08:32:46.038014"}, "gps_position": null}
{"timestamp": "2025-12-21T08:32:46.038177", "type": "gps", "data": {"raw": "$GNGSA,A,3,21,22,36,45,,,,,,,,,0.9,0.6,0.6,4*3A", "type": "$GNGSA", "timestamp": "2025-12-21T08:32:46.038172"}, "gps_position": null}
{"timestamp": "2025-12-21T08:32:46.038316", "type": "gps", "data": {"raw": "$PSSGR,GSA,A,3,236,,,,,,,,,,,,0.9,0.6,0.6,4,5*73", "type": "$PSSGR", "timestamp": "2025-12-21T08:32:46.038311"}, "gps_position": null}
{"timestamp": "2025-12-21T08:32:46.038446", "type": "gps", "data": {"raw": "$GNVTG,,T,,M,0.0,N,0.0,K,A*3D", "type": "$GNVTG", "timestamp": "2025-12-21T08:32:46.038441"}, "gps_position": null}
{"timestamp": "2025-12-21T08:32:46.038615", "type": "gps", "data": {"raw": "$GNDTM,W84,,0000.000000,N,00000.000000,E,0.000,W84*41", "type": "$GNDTM", "timestamp": "2025-12-21T08:32:46.038610"}, "gps_position": null}
{"timestamp": "2025-12-21T08:32:46.039622", "type": "gps", "data": {"raw": "$GNRMC,163246.00,A,3558.104028,N,11504.884139,W,0.0,,211225,10.9,E,A,V*5C", "type": "$GNRMC", "timestamp": "2025-12-21T08:32:46.039570", "time": "163246.00", "status": "A", "latitude": "35.968400466666665", "longitude": "-115.08140231666667", "speed": "0.0", "track": ""}, "gps_position": {"latitude": 35.968400466666665, "longitude": -115.08140231666667, "altitude": null}}
{"timestamp": "2025-12-21T08:32:46.039736", "type": "gps", "data": {"raw": "$GNGNS,163246.00,3558.104028,N,11504.884139,W,AAAANN,23,0.6,828.8,-28.2,,,V*16", "type": "$GNGNS", "timestamp": "2025-12-21T08:32:46.039730"}, "gps_position": {"latitude": 35.968400466666665, "longitude": -115.08140231666667, "altitude": null}}
{"timestamp": "2025-12-21T08:32:46.040670", "type": "gps", "data": {"raw": "$GNGGA,163246.00,3558.104028,N,11504.884139,W,1,12,0.6,828.8,M,-28.2,M,,*44", "type": "$GNGGA", "timestamp": "2025-12-21T08:32:46.040612", "time": "163246.00", "latitude": "35.968400466666665", "longitude": "-115.08140231666667", "fix_quality": "1", "satellites": "12", "altitude": "828.8"}, "gps_position": {"latitude": 35.968400466666665, "longitude": -115.08140231666667, "altitude": 828.8}}
{"timestamp": "2025-12-21T08:32:46.041294", "type": "gps", "data": {"raw": "$PSMSG,magcal=PASS,bluesky=0*00", "type": "$PSMSG", "timestamp": "2025-12-21T08:32:46.041286"}, "gps_position": {"latitude": 35.968400466666665, "longitude": -115.08140231666667, "altitude": 828.8}}
{"timestamp": "2025-12-21T08:32:47.055200", "type": "gps", "data": {"raw": "$GPGSV,3,1,09,03,39,184,20,04,71,055,27,07,35,266,29,08,10,145,25,1*68", "type": "$GPGSV", "timestamp": "2025-12-21T08:32:47.055181"}, "gps_position": {"latitude": 35.968400466666665, "longitude": -115.08140231666667, "altitude": 828.8}}
{"timestamp": "2025-12-21T08:32:47.055365", "type": "gps", "data": {"raw": "$GPGSV,3,2,09,09,56,324,31,16,51,066,28,26,20,045,15,27,16,115,14,1*69", "type": "$GPGSV", "timestamp": "2025-12-21T08:32:47.055359"}, "gps_position": {"latitude": 35.968400466666665, "longitude": -115.08140231666667, "altitude": 828.8}}
{"timestamp": "2025-12-21T08:32:47.055420", "type": "gps", "data": {"raw": "$GPGSV,3,3,09,30,08,257,20,1*54", "type": "$GPGSV", "timestamp": "2025-12-21T08:32:47.055416"}, "gps_position": {"latitude": 35.968400466666665, "longitude": -115.08140231666667, "altitude": 828.8}}
{"timestamp": "2025-12-21T08:32:47.055459", "type": "gps", "data": {"raw": "$GPGSV,1,1,03,03,39,184,19,04,71,055,14,09,56,324,21,8*59", "type": "$GPGSV", "timestamp": "2025-12-21T08:32:47.055455"}, "gps_position": {"latitude": 35.968400466666665, "longitude": -115.08140231666667, "altitude": 828.8}}
{"timestamp": "2025-12-21T08:32:47.055495", "type": "gps", "data": {"raw": "$GLGSV,1,1,04,02,70,005,17,13,44,220,17,12,81,007,29,01,47,126,17,1*79", "type": "$GLGSV", "timestamp": "2025-12-21T08:32:47.055491"}, "gps_position": {"latitude": 35.968400466666665, "longitude": -115.08140231666667, "altitude": 828.8}}
{"timestamp": "2025-12-21T08:32:47.055529", "type": "gps", "data": {"raw": "$GAGSV,3,1,09,02,62,129,30,03,45,092,17,07,21,303,23,08,66,346,28,7*7E", "type": "$GAGSV", "timestamp": "2025-12-21T08:32:47.055525"}, "gps_position": {"latitude": 35.968400466666665, "longitude": -115.08140231666667, "altitude": 828.8}}
{"timestamp": "2025-12-21T08:32:47.055562", "type": "gps", "data": {"raw": "$GAGSV,3,2,09,13,15,255,16,16,13,039,13,25,33,050,21,26,10,304,14,7*73", "type": "$GAGSV", "timestamp": "2025-12-21T08:32:47.055558"}, "gps_position": {"latitude": 35.968400466666665, "longitude": -115.08140231666667, "altitude": 828.8}}
{"timestamp": "2025-12-21T08:32:47.055614", "type": "gps", "data": {"raw": "$GAGSV,3,3,09,30,26,191,17,7*42", "type": "$GAGSV", "timestamp": "2025-12-21T08:32:47.055608"}, "gps_position": {"latitude": 35.968400466666665, "longitude": -115.08140231666667, "altitude": 828.8}}
{"timestamp": "2025-12-21T08:32:47.055678", "type": "gps", "data": {"raw": "$GAGSV,1,1,04,02,62,129,15,03,45,092,17,13,15,255,19,30,26,191,16,1*73", "type": "$GAGSV", "timestamp": "2025-12-21T08:32:47.055671"}, "gps_position": {"latitude": 35.968400466666665, "longitude": -115.08140231666667, "altitude": 828.8}}
{"timestamp": "2025-12-21T08:32:47.055757", "type": "gps", "data": {"raw": "$GBGSV,2,1,05,19,22,140,19,21,47,316,29,22,76,149,29,36,56,044,25,3*7F", "type": "$GBGSV", "timestamp": "2025-12-21T08:32:47.055750"}, "gps_position": {"latitude": 35.968400466666665, "longitude": -115.08140231666667, "altitude": 828.8}}
{"timestamp": "2025-12-21T08:32:47.055834", "type": "gps", "data": {"raw": "$GBGSV,2,2,05,45,70,235,28,3*49", "type": "$GBGSV", "timestamp": "2025-12-21T08:32:47.055828"}, "gps_position": {"latitude": 35.968400466666665, "longitude": -115.08140231666667, "altitude": 828.8}}
{"timestamp": "2025-12-21T08:32:47.055897", "type": "gps", "data": {"raw": "$GBGSV,1,1,02,36,56,044,19,45,70,235,18,5*75", "type": "$GBGSV", "timestamp": "2025-12-21T08:32:47.055891"}, "gps_position": {"latitude": 35.968400466666665, "longitude": -115.08140231666667, "altitude": 828.8}}
{"timestamp": "2025-12-21T08:32:47.055953", "type": "gps", "data": {"raw": "$GNGSA,A,3,03,04,07,08,09,16,26,27,30,,,,0.8,0.5,0.6,1*3E", "type": "$GNGSA", "timestamp": "2025-12-21T08:32:47.055948"}, "gps_position": {"latitude": 35.968400466666665, "longitude": -115.08140231666667, "altitude": 828.8}}
{"timestamp": "2025-12-21T08:32:47.056017", "type": "gps", "data": {"raw": "$PSSGR,GSA,A,3,09,,,,,,,,,,,,0.8,0.5,0.6,1,8*47", "type": "$PSSGR", "timestamp": "2025-12-21T08:32:47.056011"}, "gps_position": {"latitude": 35.968400466666665, "longitude": -115.08140231666667, "altitude": 828.8}}
{"timestamp": "2025-12-21T08:32:47.056078", "type": "gps", "data": {"raw": "$GNGSA,A,3,65,76,77,,,,,,,,,,0.8,0.5,0.6,2*3B", "type": "$GNGSA", "timestamp": "2025-12-21T08:32:47.056073"}, "gps_position": {"latitude": 35.968400466666665, "longitude": -115.08140231666667, "altitude": 828.8}}
{"timestamp": "2025-12-21T08:32:47.056132", "type": "gps", "data": {"raw": "$GNGSA,A,3,02,03,07,08,13,16,25,26,30,,,,0.8,0.5,0.6,3*33", "type": "$GNGSA", "timestamp": "2025-12-21T08:32:47.056127"}, "gps_position": {"latitude": 35.968400466666665, "longitude": -115.08140231666667, "altitude": 828.8}}
{"timestamp": "2025-12-21T08:32:47.056184", "type": "gps", "data": {"raw": "$GNGSA,A,3,21,22,36,45,,,,,,,,,0.8,0.5,0.6,4*38", "type": "$GNGSA", "timestamp": "2025-12-21T08:32:47.056179"}, "gps_position": {"latitude": 35.968400466666665, "longitude": -115.08140231666667, "altitude": 828.8}}
{"timestamp": "2025-12-21T08:32:47.056245", "type": "gps", "data": {"raw": "$PSSGR,GSA,A,3,236,,,,,,,,,,,,0.8,0.5,0.6,4,5*71", "type": "$PSSGR", "timestamp": "2025-12-21T08:32:47.056240"}, "gps_position": {"latitude": 35.968400466666665, "longitude": -115.08140231666667, "altitude": 828.8}}
{"timestamp": "2025-12-21T08:32:47.056300", "type": "gps", "data": {"raw": "$GNVTG,,T,,M,0.0,N,0.0,K,A*3D", "type": "$GNVTG", "timestamp": "2025-12-21T08:32:47.056295"}, "gps_position": {"latitude": 35.968400466666665, "longitude": -115.08140231666667, "altitude": 828.8}}
{"timestamp": "2025-12-21T08:32:47.056343", "type": "gps", "data": {"raw": "$GNDTM,W84,,0000.000000,N,00000.000000,E,0.000,W84*41", "type": "$GNDTM", "timestamp": "2025-12-21T08:32:47.056340"}, "gps_position": {"latitude": 35.968400466666665, "longitude": -115.08140231666667, "altitude": 828.8}}
{"timestamp": "2025-12-21T08:32:47.056410", "type": "gps", "data": {"raw": "$GNRMC,163247.00,A,3558.104029,N,11504.884139,W,0.0,,211225,10.9,E,A,V*5C", "type": "$GNRMC", "timestamp": "2025-12-21T08:32:47.056382", "time": "163247.00", "status": "A", "latitude": "35.96840048333333", "longitude": "-115.08140231666667", "speed": "0.0", "track": ""}, "gps_position": {"latitude": 35.96840048333333, "longitude": -115.08140231666667, "altitude": 828.8}}
{"timestamp": "2025-12-21T08:32:47.056463", "type": "gps", "data": {"raw": "$GNGNS,163247.00,3558.104029,N,11504.884139,W,AAAANN,25,0.5,828.8,-28.2,,,V*13", "type": "$GNGNS", "timestamp": "2025-12-21T08:32:47.056459"}, "gps_position": {"latitude": 35.96840048333333, "longitude": -115.08140231666667, "altitude": 828.8}}
{"timestamp": "2025-12-21T08:32:47.056519", "type": "gps", "data": {"raw": "$GNGGA,163247.00,3558.104029,N,11504.884139,W,1,12,0.5,828.8,M,-28.2,M,,*47", "type": "$GNGGA", "timestamp": "2025-12-21T08:32:47.056497", "time": "163247.00", "latitude": "35.96840048333333", "longitude": "-115.08140231666667", "fix_quality": "1", "satellites": "12", "altitude": "828.8"}, "gps_position": {"latitude": 35.96840048333333, "longitude": -115.08140231666667, "altitude": 828.8}}
{"timestamp": "2025-12-21T08:32:47.056563", "type": "gps", "data": {"raw": "$PSMSG,magcal=PASS,bluesky=0*00", "type": "$PSMSG", "timestamp": "2025-12-21T08:32:47.056560"}, "gps_position": {"latitude": 35.96840048333333, "longitude": -115.08140231666667, "altitude": 828.8}}
{"timestamp": "2025-12-21T08:32:48.056565", "type": "gps", "data": {"raw": "$GPGSV,3,1,09,03,39,184,20,04,71,055,26,07,35,266,29,08,10,145,24,1*68", "type": "$GPGSV", "timestamp": "2025-12-21T08:32:48.056527"}, "gps_position": {"latitude": 35.96840048333333, "longitude": -115.08140231666667, "altitude": 828.8}}
{"timestamp": "2025-12-21T08:32:48.056909", "type": "gps", "data": {"raw": "$GPGSV,3,2,09,09,56,324,31,16,51,066,26,26,20,045,15,27,16,115,14,1*67", "type": "$GPGSV", "timestamp": "2025-12-21T08:32:48.056894"}, "gps_position": {"latitude": 35.96840048333333, "longitude": -115.08140231666667, "altitude": 828.8}}
{"timestamp": "2025-12-21T08:32:48.057048", "type": "gps", "data": {"raw": "$GPGSV,3,3,09,30,08,257,21,1*55", "type": "$GPGSV", "timestamp": "2025-12-21T08:32:48.057032"}, "gps_position": {"latitude": 35.96840048333333, "longitude": -115.08140231666667, "altitude": 828.8}}
{"timestamp": "2025-12-21T08:32:48.057180", "type": "gps", "data": {"raw": "$GPGSV,1,1,03,03,39,184,19,04,71,055,14,09,56,324,24,8*5C", "type": "$GPGSV", "timestamp": "2025-12-21T08:32:48.057172"}, "gps_position": {"latitude": 35.96840048333333, "longitude": -115.08140231666667, "altitude": 828.8}}
{"timestamp": "2025-12-21T08:32:48.057277", "type": "gps", "data": {"raw": "$GLGSV,1,1,04,02,70,005,17,13,44,220,20,12,81,007,29,01,47,126,17,1*7D", "type": "$GLGSV", "timestamp": "2025-12-21T08:32:48.057265"}, "gps_position": {"latitude": 35.96840048333333, "longitude": -115.08140231666667, "altitude": 828.8}}
{"timestamp": "2025-12-21T08:32:48.057373", "type": "gps", "data": {"raw": "$GAGSV,3,1,09,02,62,129,31,03,45,092,17,07,21,303,23,08,66,346,27,7*70", "type": "$GAGSV", "timestamp": "2025-12-21T08:32:48.057366"}, "gps_position": {"latitude": 35.96840048333333, "longitude": -115.08140231666667, "altitude": 828.8}}
{"timestamp": "2025-12-21T08:32:48.057442", "type": "gps", "data": {"raw": "$GAGSV,3,2,09,13,15,255,20,16,13,039,13,25,33,050,21,26,10,304,14,7*76", "type": "$GAGSV", "timestamp": "2025-12-21T08:32:48.057435"}, "gps_position": {"latitude": 35.96840048333333, "longitude": -115.08140231666667, "altitude": 828.8}}
{"timestamp": "2025-12-21T08:32:48.057513", "type": "gps", "data": {"raw": "$GAGSV,3,3,09,30,26,191,20,7*46", "type": "$GAGSV", "timestamp": "2025-12-21T08:32:48.057506"}, "gps_position": {"latitude": 35.96840048333333, "longitude": -115.08140231666667, "altitude": 828.8}}
{"timestamp": "2025-12-21T08:32:48.057563", "type": "gps", "data": {"raw": "$GAGSV,1,1,04,02,62,129,15,03,45,092,16,13,15,255,20,30,26,191,16,1*78", "type": "$GAGSV", "timestamp": "2025-12-21T08:32:48.057560"}, "gps_position": {"latitude": 35.96840048333333, "longitude": -115.08140231666667, "altitude": 828.8}}
{"timestamp": "2025-12-21T08:32:48.057603", "type": "gps", "data": {"raw": "$GBGSV,2,1,05,19,22,140,19,21,47,316,29,22,76,149,30,36,56,044,25,3*77", "type": "$GBGSV", "timestamp": "2025-12-21T08:32:48.057600"}, "gps_position": {"latitude": 35.96840048333333, "longitude": -115.08140231666667, "altitude": 828.8}}
{"timestamp": "2025-12-21T08:32:48.057685", "type": "gps", "data": {"raw": "$GBGSV,2,2,05,45,70,235,28,3*49", "type": "$GBGSV", "timestamp": "2025-12-21T08:32:48.057680"}, "gps_position": {"latitude": 35.96840048333333, "longitude": -115.08140231666667, "altitude": 828.8}}
{"timestamp": "2025-12-21T08:32:48.057758", "type": "gps", "data": {"raw": "$GBGSV,1,1,02,36,56,044,19,45,70,235,17,5*7A", "type": "$GBGSV", "timestamp": "2025-12-21T08:32:48.057752"}, "gps_position": {"latitude": 35.96840048333333, "longitude": -115.08140231666667, "altitude": 828.8}}
{"timestamp": "2025-12-21T08:32:48.057812", "type": "gps", "data": {"raw": "$GNGSA,A,3,03,04,07,08,09,16,26,27,30,,,,0.9,0.6,0.6,1*3C", "type": "$GNGSA", "timestamp": "2025-12-21T08:32:48.057808"}, "gps_position": {"latitude": 35.96840048333333, "longitude": -115.08140231666667, "altitude": 828.8}}
{"timestamp": "2025-12-21T08:32:48.057930", "type": "gps", "data": {"raw": "$PSSGR,GSA,A,3,09,,,,,,,,,,,,0.9,0.6,0.6,1,8*45", "type": "$PSSGR", "timestamp": "2025-12-21T08:32:48.057924"}, "gps_position": {"latitude": 35.96840048333333, "longitude": -115.08140231666667, "altitude": 828.8}}
{"timestamp": "2025-12-21T08:32:48.057990", "type": "gps", "data": {"raw": "$GNGSA,A,3,65,76,77,,,,,,,,,,0.9,0.6,0.6,2*39", "type": "$GNGSA", "timestamp": "2025-12-21T08:32:48.057986"}, "gps_position": {"latitude": 35.96840048333333, "longitude": -115.08140231666667, "altitude": 828.8}}
{"timestamp": "2025-12-21T08:32:48.058034", "type": "gps", "data": {"raw": "$GNGSA,A,3,02,03,07,08,13,25,26,30,,,,,0.9,0.6,0.6,3*36", "type": "$GNGSA", "timestamp": "2025-12-21T08:32:48.058030"}, "gps_position": {"latitude": 35.96840048333333, "longitude": -115.08140231666667, "altitude": 828.8}}
{"timestamp": "2025-12-21T08:32:48.058071", "type": "gps", "data": {"raw": "$PSSGR,GSA,A,3,313,,,,,,,,,,,,0.9,0.6,0.6,3,1*76", "type": "$PSSGR", "timestamp": "2025-12-21T08:32:48.058068"}, "gps_position": {"latitude": 35.96840048333333, "longitude": -115.08140231666667, "altitude": 828.8}}
{"timestamp": "2025-12-21T08:32:48.058105", "type": "gps", "data": {"raw": "$GNGSA,A,3,21,22,36,45,,,,,,,,,0.9,0.6,0.6,4*3A", "type": "$GNGSA", "timestamp": "2025-12-21T08:32:48.058102"}, "gps_position": {"latitude": 35.96840048333333, "longitude": -115.08140231666667, "altitude": 828.8}}
{"timestamp": "2025-12-21T08:32:48.058143", "type": "gps", "data": {"raw": "$GNVTG,,T,,M,0.0,N,0.0,K,A*3D", "type": "$GNVTG", "timestamp": "2025-12-21T08:32:48.058140"}, "gps_position": {"latitude": 35.96840048333333, "longitude": -115.08140231666667, "altitude": 828.8}}
{"timestamp": "2025-12-21T08:32:48.058177", "type": "gps", "data": {"raw": "$GNDTM,W84,,0000.000000,N,00000.000000,E,0.000,W84*41", "type": "$GNDTM", "timestamp": "2025-12-21T08:32:48.058174"}, "gps_position": {"latitude": 35.96840048333333, "longitude": -115.08140231666667, "altitude": 828.8}}
{"timestamp": "2025-12-21T08:32:48.058241", "type": "gps", "data": {"raw": "$GNRMC,163248.00,A,3558.104029,N,11504.884139,W,0.0,,211225,10.9,E,A,V*53", "type": "$GNRMC", "timestamp": "2025-12-21T08:32:48.058206", "time": "163248.00", "status": "A", "latitude": "35.96840048333333", "longitude": "-115.08140231666667", "speed": "0.0", "track": ""}, "gps_position": {"latitude": 35.96840048333333, "longitude": -115.08140231666667, "altitude": 828.8}}
{"timestamp": "2025-12-21T08:32:48.058293", "type": "gps", "data": {"raw": "$GNGNS,163248.00,3558.104029,N,11504.884139,W,AAAANN,24,0.6,828.8,-28.2,,,V*1E", "type": "$GNGNS", "timestamp": "2025-12-21T08:32:48.058290"}, "gps_position": {"latitude": 35.96840048333333, "longitude": -115.08140231666667, "altitude": 828.8}}
{"timestamp": "2025-12-21T08:32:48.058354", "type": "gps", "data": {"raw": "$GNGGA,163248.00,3558.104029,N,11504.884139,W,1,12,0.6,828.8,M,-28.2,M,,*4B", "type": "$GNGGA", "timestamp": "2025-12-21T08:32:48.058334", "time": "163248.00", "latitude": "35.96840048333333", "longitude": "-115.08140231666667", "fix_quality": "1", "satellites": "12", "altitude": "828.8"}, "gps_position": {"latitude": 35.96840048333333, "longitude": -115.08140231666667, "altitude": 828.8}}
{"timestamp": "2025-12-21T08:32:48.058405", "type": "gps", "data": {"raw": "$PSMSG,magcal=PASS,bluesky=0*00", "type": "$PSMSG", "timestamp": "2025-12-21T08:32:48.058401"}, "gps_position": {"latitude": 35.96840048333333, "longitude": -115.08140231666667, "altitude": 828.8}}
{"timestamp": "2025-12-21T08:32:49.061391", "type": "gps", "data": {"raw": "$GPGSV,3,1,09,03,39,184,20,04,71,055,27,07,35,266,29,08,10,145,24,1*69", "type": "$GPGSV", "timestamp": "2025-12-21T08:32:49.061372"}, "gps_position": {"latitude": 35.96840048333333, "longitude": -115.08140231666667, "altitude": 828.8}}
{"timestamp": "2025-12-21T08:32:49.061545", "type": "gps", "data": {"raw": "$GPGSV,3,2,09,09,56,324,30,16,51,066,26,26,20,045,15,27,16,115,14,1*66", "type": "$GPGSV", "timestamp": "2025-12-21T08:32:49.061539"}, "gps_position": {"latitude": 35.96840048333333, "longitude": -115.08140231666667, "altitude": 828.8}}
{"timestamp": "2025-12-21T08:32:49.061592", "type": "gps", "data": {"raw": "$GPGSV,3,3,09,30,08,257,21,1*55", "type": "$GPGSV", "timestamp": "2025-12-21T08:32:49.061589"}, "gps_position": {"latitude": 35.96840048333333, "longitude": -115.08140231666667, "altitude": 828.8}}
{"timestamp": "2025-12-21T08:32:49.061630", "type": "gps", "data": {"raw": "$GPGSV,1,1,02,03,39,184,19,09,56,324,22,8*6C", "type": "$GPGSV", "timestamp": "2025-12-21T08:32:49.061627"}, "gps_position": {"latitude": 35.96840048333333, "longitude": -115.08140231666667, "altitude": 828.8}}
{"timestamp": "2025-12-21T08:32:49.061666", "type": "gps", "data": {"raw": "$GLGSV,1,1,04,02,70,005,17,13,44,220,20,12,81,007,28,01,47,126,17,1*7C", "type": "$GLGSV", "timestamp": "2025-12-21T08:32:49.061663"}, "gps_position": {"latitude": 35.96840048333333, "longitude": -115.08140231666667, "altitude": 828.8}}
{"timestamp": "2025-12-21T08:32:49.061700", "type": "gps", "data": {"raw": "$GAGSV,3,1,09,02,62,129,31,03,45,092,17,07,21,303,20,08,66,346,27,7*73", "type": "$GAGSV", "timestamp": "2025-12-21T08:32:49.061697"}, "gps_position": {"latitude": 35.96840048333333, "longitude": -115.08140231666667, "altitude": 828.8}}
{"timestamp": "2025-12-21T08:32:49.061733", "type": "gps", "data": {"raw": "$GAGSV,3,2,09,13,15,255,20,16,13,039,13,25,33,050,20,26,10,304,14,7*77", "type": "$GAGSV", "timestamp": "2025-12-21T08:32:49.061730"}, "gps_position": {"latitude": 35.96840048333333, "longitude": -115.08140231666667, "altitude": 828.8}}
{"timestamp": "2025-12-21T08:32:49.061765", "type": "gps", "data": {"raw": "$GAGSV,3,3,09,30,26,191,20,7*46", "type": "$GAGSV", "timestamp": "2025-12-21T08:32:49.061762"}, "gps_position": {"latitude": 35.96840048333333, "longitude": -115.08140231666667, "altitude": 828.8}}
{"timestamp": "2025-12-21T08:32:49.061798", "type": "gps", "data": {"raw": "$GAGSV,1,1,04,02,62,129,15,03,45,092,16,13,15,255,20,30,26,191,16,1*78", "type": "$GAGSV", "timestamp": "2025-12-21T08:32:49.061795"}, "gps_position": {"latitude": 35.96840048333333, "longitude": -115.08140231666667, "altitude": 828.8}}
{"timestamp": "2025-12-21T08:32:49.061850", "type": "gps", "data": {"raw": "$GBGSV,2,1,05,19,22,140,20,21,47,316,27,22,76,149,28,36,56,044,25,3*7A", "type": "$GBGSV", "timestamp": "2025-12-21T08:32:49.061846"}, "gps_position": {"latitude": 35.96840048333333, "longitude": -115.08140231666667, "altitude": 828.8}}
{"timestamp": "2025-12-21T08:32:49.061894", "type": "gps", "data": {"raw": "$GBGSV,2,2,05,45,70,235,28,3*49", "type": "$GBGSV", "timestamp": "2025-12-21T08:32:49.061890"}, "gps_position": {"latitude": 35.96840048333333, "longitude": -115.08140231666667, "altitude": 828.8}}
{"timestamp": "2025-12-21T08:32:49.061937", "type": "gps", "data": {"raw": "$GBGSV,1,1,02,36,56,044,19,45,70,235,17,5*7A", "type": "$GBGSV", "timestamp": "2025-12-21T08:32:49.061933"}, "gps_position": {"latitude": 35.96840048333333, "longitude": -115.08140231666667, "altitude": 828.8}}
{"timestamp": "2025-12-21T08:32:49.061972", "type": "gps", "data": {"raw": "$GNGSA,A,3,03,04,07,08,09,16,30,,,,,,0.9,0.6,0.7,1*3C", "type": "$GNGSA", "timestamp": "2025-12-21T08:32:49.061969"}, "gps_position": {"latitude": 35.96840048333333, "longitude": -115.08140231666667, "altitude": 828.8}}
{"timestamp": "2025-12-21T08:32:49.062010", "type": "gps", "data": {"raw": "$PSSGR,GSA,A,3,09,,,,,,,,,,,,0.9,0.6,0.7,1,8*44", "type": "$PSSGR", "timestamp": "2025-12-21T08:32:49.062007"}, "gps_position": {"latitude": 35.96840048333333, "longitude": -115.08140231666667, "altitude": 828.8}}
{"timestamp": "2025-12-21T08:32:49.062047", "type": "gps", "data": {"raw": "$GNGSA,A,3,65,76,77,,,,,,,,,,0.9,0.6,0.7,2*38", "type": "$GNGSA", "timestamp": "2025-12-21T08:32:49.062043"}, "gps_position": {"latitude": 35.96840048333333, "longitude": -115.08140231666667, "altitude": 828.8}}
{"timestamp": "2025-12-21T08:32:49.062081", "type": "gps", "data": {"raw": "$GNGSA,A,3,02,03,07,08,13,25,26,30,,,,,0.9,0.6,0.7,3*37", "type": "$GNGSA", "timestamp": "2025-12-21T08:32:49.062077"}, "gps_position": {"latitude": 35.96840048333333, "longitude": -115.08140231666667, "altitude": 828.8}}
{"timestamp": "2025-12-21T08:32:49.062118", "type": "gps", "data": {"raw": "$PSSGR,GSA,A,3,313,,,,,,,,,,,,0.9,0.6,0.7,3,1*77", "type": "$PSSGR", "timestamp": "2025-12-21T08:32:49.062114"}, "gps_position": {"latitude": 35.96840048333333, "longitude": -115.08140231666667, "altitude": 828.8}}
{"timestamp": "2025-12-21T08:32:49.062151", "type": "gps", "data": {"raw": "$GNGSA,A,3,19,21,22,36,45,,,,,,,,0.9,0.6,0.7,4*33", "type": "$GNGSA", "timestamp": "2025-12-21T08:32:49.062148"}, "gps_position": {"latitude": 35.96840048333333, "longitude": -115.08140231666667, "altitude": 828.8}}
{"timestamp": "2025-12-21T08:32:49.062185", "type": "gps", "data": {"raw": "$GNVTG,,T,,M,0.0,N,0.0,K,A*3D", "type": "$GNVTG", "timestamp": "2025-12-21T08:32:49.062181"}, "gps_position": {"latitude": 35.96840048333333, "longitude": -115.08140231666667, "altitude": 828.8}}
{"timestamp": "2025-12-21T08:32:49.062218", "type": "gps", "data": {"raw": "$GNDTM,W84,,0000.000000,N,00000.000000,E,0.000,W84*41", "type": "$GNDTM", "timestamp": "2025-12-21T08:32:49.062215"}, "gps_position": {"latitude": 35.96840048333333, "longitude": -115.08140231666667, "altitude": 828.8}}
{"timestamp": "2025-12-21T08:32:49.062271", "type": "gps", "data": {"raw": "$GNRMC,163249.00,A,3558.104029,N,11504.884139,W,0.0,,211225,10.9,E,A,V*52", "type": "$GNRMC", "timestamp": "2025-12-21T08:32:49.062249", "time": "163249.00", "status": "A", "latitude": "35.96840048333333", "longitude": "-115.08140231666667", "speed": "0.0", "track": ""}, "gps_position": {"latitude": 35.96840048333333, "longitude": -115.08140231666667, "altitude": 828.8}}
{"timestamp": "2025-12-21T08:32:49.062312", "type": "gps", "data": {"raw": "$GNGNS,163249.00,3558.104029,N,11504.884139,W,AAAANN,23,0.6,828.8,-28.2,,,V*18", "type": "$GNGNS", "timestamp": "2025-12-21T08:32:49.062309"}, "gps_position": {"latitude": 35.96840048333333, "longitude": -115.08140231666667, "altitude": 828.8}}
{"timestamp": "2025-12-21T08:32:49.062358", "type": "gps", "data": {"raw": "$GNGGA,163249.00,3558.104029,N,11504.884139,W,1,12,0.6,828.8,M,-28.2,M,,*4A", "type": "$GNGGA", "timestamp": "2025-12-21T08:32:49.062344", "time": "163249.00", "latitude": "35.96840048333333", "longitude": "-115.08140231666667", "fix_quality": "1", "satellites": "12", "altitude": "828.8"}, "gps_position": {"latitude": 35.96840048333333, "longitude": -115.08140231666667, "altitude": 828.8}}
{"timestamp": "2025-12-21T08:32:49.062395", "type": "gps", "data": {"raw": "$PSMSG,magcal=PASS,bluesky=0*00", "type": "$PSMSG", "timestamp": "2025-12-21T08:32:49.062392"}, "gps_position": {"latitude": 35.96840048333333, "longitude": -115.08140231666667, "altitude": 828.8}}
{"timestamp": "2025-12-21T08:32:50.033972", "type": "gps", "data": {"raw": "$GPGSV,3,1,09,03,39,184,20,04,71,055,25,07,35,266,30,08,10,145,23,1*64", "type": "$GPGSV", "timestamp": "2025-12-21T08:32:50.033949"}, "gps_position": {"latitude": 35.96840048333333, "longitude": -115.08140231666667, "altitude": 828.8}}
{"timestamp": "2025-12-21T08:32:50.034168", "type": "gps", "data": {"raw": "$GPGSV,3,2,09,09,56,324,30,16,51,066,23,26,20,045,18,27,16,115,14,1*6E", "type": "$GPGSV", "timestamp": "2025-12-21T08:32:50.034161"}, "gps_position": {"latitude": 35.96840048333333, "longitude": -115.08140231666667, "altitude": 828.8}}
{"timestamp": "2025-12-21T08:32:50.034246", "type": "gps", "data": {"raw": "$GPGSV,3,3,09,30,08,257,21,1*55", "type": "$GPGSV", "timestamp": "2025-12-21T08:32:50.034240"}, "gps_position": {"latitude": 35.96840048333333, "longitude": -115.08140231666667, "altitude": 828.8}}
{"timestamp": "2025-12-21T08:32:50.034305", "type": "gps", "data": {"raw": "$GPGSV,1,1,02,03,39,184,16,09,56,324,23,8*62", "type": "$GPGSV", "timestamp": "2025-12-21T08:32:50.034300"}, "gps_position": {"latitude": 35.96840048333333, "longitude": -115.08140231666667, "altitude": 828.8}}
{"timestamp": "2025-12-21T08:32:50.034358", "type": "gps", "data": {"raw": "$GLGSV,1,1,04,02,70,005,17,13,44,220,20,12,81,007,28,01,47,126,20,1*78", "type": "$GLGSV", "timestamp": "2025-12-21T08:32:50.034353"}, "gps_position": {"latitude": 35.96840048333333, "longitude": -115.08140231666667, "altitude": 828.8}}
{"timestamp": "2025-12-21T08:32:50.034408", "type": "gps", "data": {"raw": "$GAGSV,3,1,09,02,62,129,30,03,45,092,19,07,21,303,21,08,66,346,27,7*7D", "type": "$GAGSV", "timestamp": "2025-12-21T08:32:50.034403"}, "gps_position": {"latitude": 35.96840048333333, "longitude": -115.08140231666667, "altitude": 828.8}}
{"timestamp": "2025-12-21T08:32:50.034457", "type": "gps", "data": {"raw": "$GAGSV,3,2,09,13,15,255,19,16,13,039,13,25,33,050,21,26,10,304,18,7*70", "type": "$GAGSV", "timestamp": "2025-12-21T08:32:50.034452"}, "gps_position": {"latitude": 35.96840048333333, "longitude": -115.08140231666667, "altitude": 828.8}}
{"timestamp": "2025-12-21T08:32:50.034504", "type": "gps", "data": {"raw": "$GAGSV,3,3,09,30,26,191,20,7*46", "type": "$GAGSV", "timestamp": "2025-12-21T08:32:50.034499"}, "gps_position": {"latitude": 35.96840048333333, "longitude": -115.08140231666667, "altitude": 828.8}}
{"timestamp": "2025-12-21T08:32:50.034551", "type": "gps", "data": {"raw": "$GAGSV,1,1,03,02,62,129,17,03,45,092,16,13,15,255,20,1*44", "type": "$GAGSV", "timestamp": "2025-12-21T08:32:50.034546"}, "gps_position": {"latitude": 35.96840048333333, "longitude": -115.08140231666667, "altitude": 828.8}}
{"timestamp": "2025-12-21T08:32:50.034598", "type": "gps", "data": {"raw": "$GBGSV,2,1,05,19,22,140,20,21,47,316,27,22,76,149,29,36,56,044,23,3*7D", "type": "$GBGSV", "timestamp": "2025-12-21T08:32:50.034594"}, "gps_position": {"latitude": 35.96840048333333, "longitude": -115.08140231666667, "altitude": 828.8}}
{"timestamp": "2025-12-21T08:32:50.034644", "type": "gps", "data": {"raw": "$GBGSV,2,2,05,45,70,235,28,3*49", "type": "$GBGSV", "timestamp": "2025-12-21T08:32:50.034639"}, "gps_position": {"latitude": 35.96840048333333, "longitude": -115.08140231666667, "altitude": 828.8}}
{"timestamp": "2025-12-21T08:32:50.034690", "type": "gps", "data": {"raw": "$GBGSV,1,1,02,36,56,044,20,45,70,235,17,5*70", "type": "$GBGSV", "timestamp": "2025-12-21T08:32:50.034685"}, "gps_position": {"latitude": 35.96840048333333, "longitude": -115.08140231666667, "altitude": 828.8}}
{"timestamp": "2025-12-21T08:32:50.034736", "type": "gps", "data": {"raw": "$GNGSA,A,3,03,04,07,08,09,16,26,30,,,,,0.9,0.6,0.6,1*39", "type": "$GNGSA", "timestamp": "2025-12-21T08:32:50.034732"}, "gps_position": {"latitude": 35.96840048333333, "longitude": -115.08140231666667, "altitude": 828.8}}
{"timestamp": "2025-12-21T08:32:50.034782", "type": "gps", "data": {"raw": "$PSSGR,GSA,A,3,09,,,,,,,,,,,,0.9,0.6,0.6,1,8*45", "type": "$PSSGR", "timestamp": "2025-12-21T08:32:50.034777"}, "gps_position": {"latitude": 35.96840048333333, "longitude": -115.08140231666667, "altitude": 828.8}}
{"timestamp": "2025-12-21T08:32:50.034828", "type": "gps", "data": {"raw": "$GNGSA,A,3,65,66,76,77,,,,,,,,,0.9,0.6,0.6,2*39", "type": "$GNGSA", "timestamp": "2025-12-21T08:32:50.034823"}, "gps_position": {"latitude": 35.96840048333333, "longitude": -115.08140231666667, "altitude": 828.8}}
{"timestamp": "2025-12-21T08:32:50.034887", "type": "gps", "data": {"raw": "$GNGSA,A,3,02,03,07,08,13,25,26,30,,,,,0.9,0.6,0.6,3*36", "type": "$GNGSA", "timestamp": "2025-12-21T08:32:50.034882"}, "gps_position": {"latitude": 35.96840048333333, "longitude": -115.08140231666667, "altitude": 828.8}}
{"timestamp": "2025-12-21T08:32:50.034935", "type": "gps", "data": {"raw": "$PSSGR,GSA,A,3,313,,,,,,,,,,,,0.9,0.6,0.6,3,1*76", "type": "$PSSGR", "timestamp": "2025-12-21T08:32:50.034931"}, "gps_position": {"latitude": 35.96840048333333, "longitude": -115.08140231666667, "altitude": 828.8}}
{"timestamp": "2025-12-21T08:32:50.034982", "type": "gps", "data": {"raw": "$GNGSA,A,3,19,21,22,36,45,,,,,,,,0.9,0.6,0.6,4*32", "type": "$GNGSA", "timestamp": "2025-12-21T08:32:50.034977"}, "gps_position": {"latitude": 35.96840048333333, "longitude": -115.08140231666667, "altitude": 828.8}}
{"timestamp": "2025-12-21T08:32:50.035028", "type": "gps", "data": {"raw": "$GNVTG,,T,,M,0.0,N,0.0,K,A*3D", "type": "$GNVTG", "timestamp": "2025-12-21T08:32:50.035023"}, "gps_position": {"latitude": 35.96840048333333, "longitude": -115.08140231666667, "altitude": 828.8}}
{"timestamp": "2025-12-21T08:32:50.035073", "type": "gps", "data": {"raw": "$GNDTM,W84,,0000.000000,N,00000.000000,E,0.000,W84*41", "type": "$GNDTM", "timestamp": "2025-12-21T08:32:50.035069"}, "gps_position": {"latitude": 35.96840048333333, "longitude": -115.08140231666667, "altitude": 828.8}}
{"timestamp": "2025-12-21T08:32:50.035142", "type": "gps", "data": {"raw": "$GNRMC,163250.00,A,3558.104030,N,11504.884139,W,0.0,,211225,10.9,E,A,V*52", "type": "$GNRMC", "timestamp": "2025-12-21T08:32:50.035115", "time": "163250.00", "status": "A", "latitude": "35.9684005", "longitude": "-115.08140231666667", "speed": "0.0", "track": ""}, "gps_position": {"latitude": 35.9684005, "longitude": -115.08140231666667, "altitude": 828.8}}
{"timestamp": "2025-12-21T08:32:50.035200", "type": "gps", "data": {"raw": "$GNGNS,163250.00,3558.104030,N,11504.884139,W,AAAANN,25,0.6,828.8,-28.2,,,V*1E", "type": "$GNGNS", "timestamp": "2025-12-21T08:32:50.035195"}, "gps_position": {"latitude": 35.9684005, "longitude": -115.08140231666667, "altitude": 828.8}}
{"timestamp": "2025-12-21T08:32:50.042994", "type": "gps", "data": {"raw": "$GNGGA,163250.00,3558.104030,N,11504.884139,W,1,12,0.6,828.8,M,-28.2,M,,*4A", "type": "$GNGGA", "timestamp": "2025-12-21T08:32:50.042950", "time": "163250.00", "latitude": "35.9684005", "longitude": "-115.08140231666667", "fix_quality": "1", "satellites": "12", "altitude": "828.8"}, "gps_position": {"latitude": 35.9684005, "longitude": -115.08140231666667, "altitude": 828.8}}
{"timestamp": "2025-12-21T08:32:50.044126", "type": "gps", "data": {"raw": "$PSMSG,magcal=PASS,bluesky=0*00", "type": "$PSMSG", "timestamp": "2025-12-21T08:32:50.044115"}, "gps_position": {"latitude": 35.9684005, "longitude": -115.08140231666667, "altitude": 828.8}}
{"timestamp": "2025-12-21T08:32:51.073978", "type": "gps", "data": {"raw": "$GPGSV,3,1,09,03,39,184,23,04,71,055,25,07,35,266,29,08,10,145,24,1*68", "type": "$GPGSV", "timestamp": "2025-12-21T08:32:51.073957"}, "gps_position": {"latitude": 35.9684005, "longitude": -115.08140231666667, "altitude": 828.8}}
{"timestamp": "2025-12-21T08:32:51.074162", "type": "gps", "data": {"raw": "$GPGSV,3,2,09,09,56,324,30,16,51,066,26,26,20,045,18,27,16,115,14,1*6B", "type": "$GPGSV", "timestamp": "2025-12-21T08:32:51.074153"}, "gps_position": {"latitude": 35.9684005, "longitude": -115.08140231666667, "altitude": 828.8}}
{"timestamp": "2025-12-21T08:32:51.074230", "type": "gps", "data": {"raw": "$GPGSV,3,3,09,30,08,257,21,1*55", "type": "$GPGSV", "timestamp": "2025-12-21T08:32:51.074225"}, "gps_position": {"latitude": 35.9684005, "longitude": -115.08140231666667, "altitude": 828.8}}
{"timestamp": "2025-12-21T08:32:51.074280", "type": "gps", "data": {"raw": "$GPGSV,1,1,02,03,39,184,16,09,56,324,26,8*67", "type": "$GPGSV", "timestamp": "2025-12-21T08:32:51.074275"}, "gps_position": {"latitude": 35.9684005, "longitude": -115.08140231666667, "altitude": 828.8}}
{"timestamp": "2025-12-21T08:32:51.074352", "type": "gps", "data": {"raw": "$GLGSV,1,1,04,02,70,005,17,13,44,220,20,12,81,007,29,01,47,126,20,1*79", "type": "$GLGSV", "timestamp": "2025-12-21T08:32:51.074343"}, "gps_position": {"latitude": 35.9684005, "longitude": -115.08140231666667, "altitude": 828.8}}
{"timestamp": "2025-12-21T08:32:51.074406", "type": "gps", "data": {"raw": "$GAGSV,3,1,09,02,62,129,30,03,45,092,19,07,21,303,23,08,66,346,28,7*70", "type": "$GAGSV", "timestamp": "2025-12-21T08:32:51.074403"}, "gps_position": {"latitude": 35.9684005, "longitude": -115.08140231666667, "altitude": 828.8}}
{"timestamp": "2025-12-21T08:32:51.074445", "type": "gps", "data": {"raw": "$GAGSV,3,2,09,13,15,255,19,16,13,039,13,25,33,050,21,26,10,304,18,7*70", "type": "$GAGSV", "timestamp": "2025-12-21T08:32:51.074441"}, "gps_position": {"latitude": 35.9684005, "longitude": -115.08140231666667, "altitude": 828.8}}
{"timestamp": "2025-12-21T08:32:51.074481", "type": "gps", "data": {"raw": "$GAGSV,3,3,09,30,26,191,20,7*46", "type": "$GAGSV", "timestamp": "2025-12-21T08:32:51.074478"}, "gps_position": {"latitude": 35.9684005, "longitude": -115.08140231666667, "altitude": 828.8}}
{"timestamp": "2025-12-21T08:32:51.074514", "type": "gps", "data": {"raw": "$GAGSV,1,1,03,02,62,129,17,03,45,092,16,13,15,255,19,1*4E", "type": "$GAGSV", "timestamp": "2025-12-21T08:32:51.074511"}, "gps_position": {"latitude": 35.9684005, "longitude": -115.08140231666667, "altitude": 828.8}}
{"timestamp": "2025-12-21T08:32:51.074547", "type": "gps", "data": {"raw": "$GBGSV,2,1,05,19,22,140,20,21,47,316,26,22,76,149,30,36,56,044,24,3*73", "type": "$GBGSV", "timestamp": "2025-12-21T08:32:51.074544"}, "gps_position": {"latitude": 35.9684005, "longitude": -115.08140231666667, "altitude": 828.8}}
{"timestamp": "2025-12-21T08:32:51.074579", "type": "gps", "data": {"raw": "$GBGSV,2,2,05,45,70,235,27,3*46", "type": "$GBGSV", "timestamp": "2025-12-21T08:32:51.074576"}, "gps_position": {"latitude": 35.9684005, "longitude": -115.08140231666667, "altitude": 828.8}}
{"timestamp": "2025-12-21T08:32:51.074612", "type": "gps", "data": {"raw": "$GBGSV,1,1,02,36,56,044,20,45,70,235,17,5*70", "type": "$GBGSV", "timestamp": "2025-12-21T08:32:51.074609"}, "gps_position": {"latitude": 35.9684005, "longitude": -115.08140231666667, "altitude": 828.8}}
{"timestamp": "2025-12-21T08:32:51.074644", "type": "gps", "data": {"raw": "$GNGSA,A,3,03,04,07,08,09,16,26,30,,,,,0.9,0.6,0.6,1*39", "type": "$GNGSA", "timestamp": "2025-12-21T08:32:51.074641"}, "gps_position": {"latitude": 35.9684005, "longitude": -115.08140231666667, "altitude": 828.8}}
{"timestamp": "2025-12-21T08:32:51.074676", "type": "gps", "data": {"raw": "$PSSGR,GSA,A,3,09,,,,,,,,,,,,0.9,0.6,0.6,1,8*45", "type": "$PSSGR", "timestamp": "2025-12-21T08:32:51.074673"}, "gps_position": {"latitude": 35.9684005, "longitude": -115.08140231666667, "altitude": 828.8}}
{"timestamp": "2025-12-21T08:32:51.074708", "type": "gps", "data": {"raw": "$GNGSA,A,3,65,66,76,77,,,,,,,,,0.9,0.6,0.6,2*39", "type": "$GNGSA", "timestamp": "2025-12-21T08:32:51.074705"}, "gps_position": {"latitude": 35.9684005, "longitude": -115.08140231666667, "altitude": 828.8}}
{"timestamp": "2025-12-21T08:32:51.074739", "type": "gps", "data": {"raw": "$GNGSA,A,3,02,03,07,08,13,25,26,30,,,,,0.9,0.6,0.6,3*36", "type": "$GNGSA", "timestamp": "2025-12-21T08:32:51.074736"}, "gps_position": {"latitude": 35.9684005, "longitude": -115.08140231666667, "altitude": 828.8}}
{"timestamp": "2025-12-21T08:32:51.074771", "type": "gps", "data": {"raw": "$PSSGR,GSA,A,3,313,,,,,,,,,,,,0.9,0.6,0.6,3,1*76", "type": "$PSSGR", "timestamp": "2025-12-21T08:32:51.074768"}, "gps_position": {"latitude": 35.9684005, "longitude": -115.08140231666667, "altitude": 828.8}}
{"timestamp": "2025-12-21T08:32:51.074803", "type": "gps", "data": {"raw": "$GNGSA,A,3,19,21,22,36,45,,,,,,,,0.9,0.6,0.6,4*32", "type": "$GNGSA", "timestamp": "2025-12-21T08:32:51.074800"}, "gps_position": {"latitude": 35.9684005, "longitude": -115.08140231666667, "altitude": 828.8}}
{"timestamp": "2025-12-21T08:32:51.074834", "type": "gps", "data": {"raw": "$GNVTG,,T,,M,0.0,N,0.0,K,A*3D", "type": "$GNVTG", "timestamp": "2025-12-21T08:32:51.074831"}, "gps_position": {"latitude": 35.9684005, "longitude": -115.08140231666667, "altitude": 828.8}}
{"timestamp": "2025-12-21T08:32:51.074871", "type": "gps", "data": {"raw": "$GNDTM,W84,,0000.000000,N,00000.000000,E,0.000,W84*41", "type": "$GNDTM", "timestamp": "2025-12-21T08:32:51.074868"}, "gps_position": {"latitude": 35.9684005, "longitude": -115.08140231666667, "altitude": 828.8}}
{"timestamp": "2025-12-21T08:32:51.074922", "type": "gps", "data": {"raw": "$GNRMC,163251.00,A,3558.104030,N,11504.884138,W,0.0,,211225,10.9,E,A,V*52", "type": "$GNRMC", "timestamp": "2025-12-21T08:32:51.074901", "time": "163251.00", "status": "A", "latitude": "35.9684005", "longitude": "-115.0814023", "speed": "0.0", "track": ""}, "gps_position": {"latitude": 35.9684005, "longitude": -115.0814023, "altitude": 828.8}}
{"timestamp": "2025-12-21T08:32:51.074965", "type": "gps", "data": {"raw": "$GNGNS,163251.00,3558.104030,N,11504.884138,W,AAAANN,25,0.6,828.8,-28.2,,,V*1E", "type": "$GNGNS", "timestamp": "2025-12-21T08:32:51.074961"}, "gps_position": {"latitude": 35.9684005, "longitude": -115.0814023, "altitude": 828.8}}
{"timestamp": "2025-12-21T08:32:51.075009", "type": "gps", "data": {"raw": "$GNGGA,163251.00,3558.104030,N,11504.884138,W,1,12,0.6,828.8,M,-28.2,M,,*4A", "type": "$GNGGA", "timestamp": "2025-12-21T08:32:51.074997", "time": "163251.00", "latitude": "35.9684005", "longitude": "-115.0814023", "fix_quality": "1", "satellites": "12", "altitude": "828.8"}, "gps_position": {"latitude": 35.9684005, "longitude": -115.0814023, "altitude": 828.8}}
{"timestamp": "2025-12-21T08:32:51.075048", "type": "gps", "data": {"raw": "$PSMSG,magcal=PASS,bluesky=0*00", "type": "$PSMSG", "timestamp": "2025-12-21T08:32:51.075045"}, "gps_position": {"latitude": 35.9684005, "longitude": -115.0814023, "altitude": 828.8}}
{"timestamp": "2025-12-21T08:32:52.057689", "type": "gps", "data": {"raw": "$GPGSV,3,1,09,03,39,184,23,04,71,055,24,07,35,266,29,08,10,145,23,1*6E", "type": "$GPGSV", "timestamp": "2025-12-21T08:32:52.057671"}, "gps_position": {"latitude": 35.9684005, "longitude": -115.0814023, "altitude": 828.8}}
{"timestamp": "2025-12-21T08:32:52.062025", "type": "gps", "data": {"raw": "$GPGSV,3,2,09,09,56,324,30,16,51,066,25,26,20,045,18,27,16,115,14,1*68", "type": "$GPGSV", "timestamp": "2025-12-21T08:32:52.062011"}, "gps_position": {"latitude": 35.9684005, "longitude": -115.0814023, "altitude": 828.8}}
{"timestamp": "2025-12-21T08:32:52.062093", "type": "gps", "data": {"raw": "$GPGSV,3,3,09,30,08,257,20,1*54", "type": "$GPGSV", "timestamp": "2025-12-21T08:32:52.062089"}, "gps_position": {"latitude": 35.9684005, "longitude": -115.0814023, "altitude": 828.8}}
{"timestamp": "2025-12-21T08:32:52.062133", "type": "gps", "data": {"raw": "$GPGSV,1,1,02,03,39,184,16,09,56,324,23,8*62", "type": "$GPGSV", "timestamp": "2025-12-21T08:32:52.062130"}, "gps_position": {"latitude": 35.9684005, "longitude": -115.0814023, "altitude": 828.8}}
{"timestamp": "2025-12-21T08:32:52.062170", "type": "gps", "data": {"raw": "$GLGSV,1,1,04,02,70,005,17,13,44,220,20,12,81,007,29,01,47,126,22,1*7B", "type": "$GLGSV", "timestamp": "2025-12-21T08:32:52.062166"}, "gps_position": {"latitude": 35.9684005, "longitude": -115.0814023, "altitude": 828.8}}
{"timestamp": "2025-12-21T08:32:52.062209", "type": "gps", "data": {"raw": "$GAGSV,3,1,09,02,62,129,31,03,45,092,19,07,21,303,23,08,66,346,26,7*7F", "type": "$GAGSV", "timestamp": "2025-12-21T08:32:52.062206"}, "gps_position": {"latitude": 35.9684005, "longitude": -115.0814023, "altitude": 828.8}}
{"timestamp": "2025-12-21T08:32:52.062247", "type": "gps", "data": {"raw": "$GAGSV,3,2,09,13,15,255,18,16,13,039,13,25,33,050,20,26,10,304,18,7*70", "type": "$GAGSV", "timestamp": "2025-12-21T08:32:52.062243"}, "gps_position": {"latitude": 35.9684005, "longitude": -115.0814023, "altitude": 828.8}}
{"timestamp": "2025-12-21T08:32:52.062279", "type": "gps", "data": {"raw": "$GAGSV,3,3,09,30,26,191,20,7*46", "type": "$GAGSV", "timestamp": "2025-12-21T08:32:52.062276"}, "gps_position": {"latitude": 35.9684005, "longitude": -115.0814023, "altitude": 828.8}}
{"timestamp": "2025-12-21T08:32:52.062318", "type": "gps", "data": {"raw": "$GAGSV,1,1,03,02,62,129,17,03,45,092,17,13,15,255,19,1*4F", "type": "$GAGSV", "timestamp": "2025-12-21T08:32:52.062315"}, "gps_position": {"latitude": 35.9684005, "longitude": -115.0814023, "altitude": 828.8}}
{"timestamp": "2025-12-21T08:32:52.062353", "type": "gps", "data": {"raw": "$GBGSV,2,1,05,19,22,140,20,21,47,316,27,22,76,149,29,36,56,044,22,3*7C", "type": "$GBGSV", "timestamp": "2025-12-21T08:32:52.062350"}, "gps_position": {"latitude": 35.9684005, "longitude": -115.0814023, "altitude": 828.8}}
{"timestamp": "2025-12-21T08:32:52.062385", "type": "gps", "data": {"raw": "$GBGSV,2,2,05,45,70,235,27,3*46", "type": "$GBGSV", "timestamp": "2025-12-21T08:32:52.062382"}, "gps_position": {"latitude": 35.9684005, "longitude": -115.0814023, "altitude": 828.8}}
{"timestamp": "2025-12-21T08:32:52.062417", "type": "gps", "data": {"raw": "$GBGSV,1,1,02,36,56,044,20,45,70,235,18,5*7F", "type": "$GBGSV", "timestamp": "2025-12-21T08:32:52.062414"}, "gps_position": {"latitude": 35.9684005, "longitude": -115.0814023, "altitude": 828.8}}
{"timestamp": "2025-12-21T08:32:52.062450", "type": "gps", "data": {"raw": "$GNGSA,A,3,03,04,07,08,09,16,26,30,,,,,0.9,0.6,0.6,1*39", "type": "$GNGSA", "timestamp": "2025-12-21T08:32:52.062446"}, "gps_position": {"latitude": 35.9684005, "longitude": -115.0814023, "altitude": 828.8}}
{"timestamp": "2025-12-21T08:32:52.062481", "type": "gps", "data": {"raw": "$PSSGR,GSA,A,3,09,,,,,,,,,,,,0.9,0.6,0.6,1,8*45", "type": "$PSSGR", "timestamp": "2025-12-21T08:32:52.062478"}, "gps_position": {"latitude": 35.9684005, "longitude": -115.0814023, "altitude": 828.8}}
{"timestamp": "2025-12-21T08:32:52.062513", "type": "gps", "data": {"raw": "$GNGSA,A,3,65,66,76,77,,,,,,,,,0.9,0.6,0.6,2*39", "type": "$GNGSA", "timestamp": "2025-12-21T08:32:52.062510"}, "gps_position": {"latitude": 35.9684005, "longitude": -115.0814023, "altitude": 828.8}}
{"timestamp": "2025-12-21T08:32:52.062545", "type": "gps", "data": {"raw": "$GNGSA,A,3,02,03,07,08,13,25,26,30,,,,,0.9,0.6,0.6,3*36", "type": "$GNGSA", "timestamp": "2025-12-21T08:32:52.062541"}, "gps_position": {"latitude": 35.9684005, "longitude": -115.0814023, "altitude": 828.8}}
{"timestamp": "2025-12-21T08:32:52.062581", "type": "gps", "data": {"raw": "$PSSGR,GSA,A,3,313,,,,,,,,,,,,0.9,0.6,0.6,3,1*76", "type": "$PSSGR", "timestamp": "2025-12-21T08:32:52.062578"}, "gps_position": {"latitude": 35.9684005, "longitude": -115.0814023, "altitude": 828.8}}
{"timestamp": "2025-12-21T08:32:52.062614", "type": "gps", "data": {"raw": "$GNGSA,A,3,19,21,22,36,45,,,,,,,,0.9,0.6,0.6,4*32", "type": "$GNGSA", "timestamp": "2025-12-21T08:32:52.062611"}, "gps_position": {"latitude": 35.9684005, "longitude": -115.0814023, "altitude": 828.8}}
{"timestamp": "2025-12-21T08:32:52.062647", "type": "gps", "data": {"raw": "$GNVTG,,T,,M,0.0,N,0.0,K,A*3D", "type": "$GNVTG", "timestamp": "2025-12-21T08:32:52.062644"}, "gps_position": {"latitude": 35.9684005, "longitude": -115.0814023, "altitude": 828.8}}
{"timestamp": "2025-12-21T08:32:52.062685", "type": "gps", "data": {"raw": "$GNDTM,W84,,0000.000000,N,00000.000000,E,0.000,W84*41", "type": "$GNDTM", "timestamp": "2025-12-21T08:32:52.062682"}, "gps_position": {"latitude": 35.9684005, "longitude": -115.0814023, "altitude": 828.8}}
{"timestamp": "2025-12-21T08:32:52.062740", "type": "gps", "data": {"raw": "$GNRMC,163252.00,A,3558.104031,N,11504.884137,W,0.0,,211225,10.9,E,A,V*5F", "type": "$GNRMC", "timestamp": "2025-12-21T08:32:52.062716", "time": "163252.00", "status": "A", "latitude": "35.96840051666667", "longitude": "-115.08140228333333", "speed": "0.0", "track": ""}, "gps_position": {"latitude": 35.96840051666667, "longitude": -115.08140228333333, "altitude": 828.8}}
{"timestamp": "2025-12-21T08:32:52.062782", "type": "gps", "data": {"raw": "$GNGNS,163252.00,3558.104031,N,11504.884137,W,AAAANN,25,0.6,828.8,-28.2,,,V*13", "type": "$GNGNS", "timestamp": "2025-12-21T08:32:52.062778"}, "gps_position": {"latitude": 35.96840051666667, "longitude": -115.08140228333333, "altitude": 828.8}}
{"timestamp": "2025-12-21T08:32:52.062839", "type": "gps", "data": {"raw": "$GNGGA,163252.00,3558.104031,N,11504.884137,W,1,12,0.6,828.8,M,-28.2,M,,*47", "type": "$GNGGA", "timestamp": "2025-12-21T08:32:52.062825", "time": "163252.00", "latitude": "35.96840051666667", "longitude": "-115.08140228333333", "fix_quality": "1", "satellites": "12", "altitude": "828.8"}, "gps_position": {"latitude": 35.96840051666667, "longitude": -115.08140228333333, "altitude": 828.8}}
{"timestamp": "2025-12-21T08:32:52.062880", "type": "gps", "data": {"raw": "$PSMSG,magcal=PASS,bluesky=0*00", "type": "$PSMSG", "timestamp": "2025-12-21T08:32:52.062877"}, "gps_position": {"latitude": 35.96840051666667, "longitude": -115.08140228333333, "altitude": 828.8}}
{"timestamp": "2025-12-21T08:32:53.054220", "type": "gps", "data": {"raw": "$GPGSV,3,1,09,03,39,184,22,04,71,055,23,07,35,266,29,08,10,145,23,1*68", "type": "$GPGSV", "timestamp": "2025-12-21T08:32:53.054151"}, "gps_position": {"latitude": 35.96840051666667, "longitude": -115.08140228333333, "altitude": 828.8}}
{"timestamp": "2025-12-21T08:32:53.054435", "type": "gps", "data": {"raw": "$GPGSV,3,2,09,09,56,324,31,16,51,066,24,26,20,045,18,27,16,115,14,1*68", "type": "$GPGSV", "timestamp": "2025-12-21T08:32:53.054427"}, "gps_position": {"latitude": 35.96840051666667, "longitude": -115.08140228333333, "altitude": 828.8}}
{"timestamp": "2025-12-21T08:32:53.054533", "type": "gps", "data": {"raw": "$GPGSV,3,3,09,30,08,257,20,1*54", "type": "$GPGSV", "timestamp": "2025-12-21T08:32:53.054528"}, "gps_position": {"latitude": 35.96840051666667, "longitude": -115.08140228333333, "altitude": 828.8}}
{"timestamp": "2025-12-21T08:32:53.054654", "type": "gps", "data": {"raw": "$GPGSV,1,1,02,03,39,184,16,09,56,324,23,8*62", "type": "$GPGSV", "timestamp": "2025-12-21T08:32:53.054646"}, "gps_position": {"latitude": 35.96840051666667, "longitude": -115.08140228333333, "altitude": 828.8}}
{"timestamp": "2025-12-21T08:32:53.054720", "type": "gps", "data": {"raw": "$GLGSV,1,1,04,02,70,005,17,13,44,220,20,12,81,007,29,01,47,126,22,1*7B", "type": "$GLGSV", "timestamp": "2025-12-21T08:32:53.054715"}, "gps_position": {"latitude": 35.96840051666667, "longitude": -115.08140228333333, "altitude": 828.8}}
{"timestamp": "2025-12-21T08:32:53.054766", "type": "gps", "data": {"raw": "$GAGSV,3,1,09,02,62,129,30,03,45,092,19,07,21,303,21,08,66,346,27,7*7D", "type": "$GAGSV", "timestamp": "2025-12-21T08:32:53.054762"}, "gps_position": {"latitude": 35.96840051666667, "longitude": -115.08140228333333, "altitude": 828.8}}
{"timestamp": "2025-12-21T08:32:53.054812", "type": "gps", "data": {"raw": "$GAGSV,3,2,09,13,15,255,18,16,13,039,13,25,33,050,20,26,10,304,18,7*70", "type": "$GAGSV", "timestamp": "2025-12-21T08:32:53.054808"}, "gps_position": {"latitude": 35.96840051666667, "longitude": -115.08140228333333, "altitude": 828.8}}
{"timestamp": "2025-12-21T08:32:53.054851", "type": "gps", "data": {"raw": "$GAGSV,3,3,09,30,26,191,19,7*4C", "type": "$GAGSV", "timestamp": "2025-12-21T08:32:53.054848"}, "gps_position": {"latitude": 35.96840051666667, "longitude": -115.08140228333333, "altitude": 828.8}}
{"timestamp": "2025-12-21T08:32:53.054888", "type": "gps", "data": {"raw": "$GAGSV,1,1,03,02,62,129,17,03,45,092,17,13,15,255,20,1*45", "type": "$GAGSV", "timestamp": "2025-12-21T08:32:53.054884"}, "gps_position": {"latitude": 35.96840051666667, "longitude": -115.08140228333333, "altitude": 828.8}}
{"timestamp": "2025-12-21T08:32:53.054926", "type": "gps", "data": {"raw": "$GBGSV,2,1,05,19,22,140,20,21,47,316,28,22,76,149,29,36,56,044,24,3*75", "type": "$GBGSV", "timestamp": "2025-12-21T08:32:53.054923"}, "gps_position": {"latitude": 35.96840051666667, "longitude": -115.08140228333333, "altitude": 828.8}}
{"timestamp": "2025-12-21T08:32:53.054962", "type": "gps", "data": {"raw": "$GBGSV,2,2,05,45,70,235,27,3*46", "type": "$GBGSV", "timestamp": "2025-12-21T08:32:53.054959"}, "gps_position": {"latitude": 35.96840051666667, "longitude": -115.08140228333333, "altitude": 828.8}}
{"timestamp": "2025-12-21T08:32:53.055006", "type": "gps", "data": {"raw": "$GBGSV,1,1,02,36,56,044,20,45,70,235,18,5*7F", "type": "$GBGSV", "timestamp": "2025-12-21T08:32:53.055003"}, "gps_position": {"latitude": 35.96840051666667, "longitude": -115.08140228333333, "altitude": 828.8}}
{"timestamp": "2025-12-21T08:32:53.055043", "type": "gps", "data": {"raw": "$GNGSA,A,3,03,04,07,08,09,16,26,30,,,,,0.9,0.6,0.6,1*39", "type": "$GNGSA", "timestamp": "2025-12-21T08:32:53.055040"}, "gps_position": {"latitude": 35.96840051666667, "longitude": -115.08140228333333, "altitude": 828.8}}
{"timestamp": "2025-12-21T08:32:53.055079", "type": "gps", "data": {"raw": "$PSSGR,GSA,A,3,09,,,,,,,,,,,,0.9,0.6,0.6,1,8*45", "type": "$PSSGR", "timestamp": "2025-12-21T08:32:53.055076"}, "gps_position": {"latitude": 35.96840051666667, "longitude": -115.08140228333333, "altitude": 828.8}}
{"timestamp": "2025-12-21T08:32:53.055114", "type": "gps", "data": {"raw": "$GNGSA,A,3,65,66,76,77,,,,,,,,,0.9,0.6,0.6,2*39", "type": "$GNGSA", "timestamp": "2025-12-21T08:32:53.055111"}, "gps_position": {"latitude": 35.96840051666667, "longitude": -115.08140228333333, "altitude": 828.8}}
{"timestamp": "2025-12-21T08:32:53.055149", "type": "gps", "data": {"raw": "$GNGSA,A,3,02,03,07,08,13,25,26,30,,,,,0.9,0.6,0.6,3*36", "type": "$GNGSA", "timestamp": "2025-12-21T08:32:53.055146"}, "gps_position": {"latitude": 35.96840051666667, "longitude": -115.08140228333333, "altitude": 828.8}}
{"timestamp": "2025-12-21T08:32:53.055880", "type": "gps", "data": {"raw": "$PSSGR,GSA,A,3,313,,,,,,,,,,,,0.9,0.6,0.6,3,1*76", "type": "$PSSGR", "timestamp": "2025-12-21T08:32:53.055862"}, "gps_position": {"latitude": 35.96840051666667, "longitude": -115.08140228333333, "altitude": 828.8}}
{"timestamp": "2025-12-21T08:32:53.056080", "type": "gps", "data": {"raw": "$GNGSA,A,3,19,21,22,36,45,,,,,,,,0.9,0.6,0.6,4*32", "type": "$GNGSA", "timestamp": "2025-12-21T08:32:53.056070"}, "gps_position": {"latitude": 35.96840051666667, "longitude": -115.08140228333333, "altitude": 828.8}}
{"timestamp": "2025-12-21T08:32:53.056187", "type": "gps", "data": {"raw": "$GNVTG,,T,,M,0.0,N,0.0,K,A*3D", "type": "$GNVTG", "timestamp": "2025-12-21T08:32:53.056181"}, "gps_position": {"latitude": 35.96840051666667, "longitude": -115.08140228333333, "altitude": 828.8}}
{"timestamp": "2025-12-21T08:32:53.056261", "type": "gps", "data": {"raw": "$GNDTM,W84,,0000.000000,N,00000.000000,E,0.000,W84*41", "type": "$GNDTM", "timestamp": "2025-12-21T08:32:53.056256"}, "gps_position": {"latitude": 35.96840051666667, "longitude": -115.08140228333333, "altitude": 828.8}}
{"timestamp": "2025-12-21T08:32:53.056366", "type": "gps", "data": {"raw": "$GNRMC,163253.00,A,3558.104031,N,11504.884137,W,0.0,,211225,10.9,E,A,V*5E", "type": "$GNRMC", "timestamp": "2025-12-21T08:32:53.056328", "time": "163253.00", "status": "A", "latitude": "35.96840051666667", "longitude": "-115.08140228333333", "speed": "0.0", "track": ""}, "gps_position": {"latitude": 35.96840051666667, "longitude": -115.08140228333333, "altitude": 828.8}}
{"timestamp": "2025-12-21T08:32:53.056460", "type": "gps", "data": {"raw": "$GNGNS,163253.00,3558.104031,N,11504.884137,W,AAAANN,25,0.6,828.8,-28.2,,,V*12", "type": "$GNGNS", "timestamp": "2025-12-21T08:32:53.056452"}, "gps_position": {"latitude": 35.96840051666667, "longitude": -115.08140228333333, "altitude": 828.8}}
{"timestamp": "2025-12-21T08:32:53.056565", "type": "gps", "data": {"raw": "$GNGGA,163253.00,3558.104031,N,11504.884137,W,1,12,0.6,828.8,M,-28.2,M,,*46", "type": "$GNGGA", "timestamp": "2025-12-21T08:32:53.056538", "time": "163253.00", "latitude": "35.96840051666667", "longitude": "-115.08140228333333", "fix_quality": "1", "satellites": "12", "altitude": "828.8"}, "gps_position": {"latitude": 35.96840051666667, "longitude": -115.08140228333333, "altitude": 828.8}}
{"timestamp": "2025-12-21T08:32:53.056647", "type": "gps", "data": {"raw": "$PSMSG,magcal=PASS,bluesky=0*00", "type": "$PSMSG", "timestamp": "2025-12-21T08:32:53.056641"}, "gps_position": {"latitude": 35.96840051666667, "longitude": -115.08140228333333, "altitude": 828.8}}
{"timestamp": "2025-12-21T08:32:54.056800", "type": "gps", "data": {"raw": "$GPGSV,3,1,09,03,39,184,23,04,71,055,25,07,35,266,30,08,10,145,25,1*61", "type": "$GPGSV", "timestamp": "2025-12-21T08:32:54.056780"}, "gps_position": {"latitude": 35.96840051666667, "longitude": -115.08140228333333, "altitude": 828.8}}
{"timestamp": "2025-12-21T08:32:54.057119", "type": "gps", "data": {"raw": "$GPGSV,3,2,09,09,56,324,30,16,51,066,26,26,20,045,18,27,16,115,14,1*6B", "type": "$GPGSV", "timestamp": "2025-12-21T08:32:54.057108"}, "gps_position": {"latitude": 35.96840051666667, "longitude": -115.08140228333333, "altitude": 828.8}}
{"timestamp": "2025-12-21T08:32:54.057336", "type": "gps", "data": {"raw": "$GPGSV,3,3,09,30,08,257,20,1*54", "type": "$GPGSV", "timestamp": "2025-12-21T08:32:54.057328"}, "gps_position": {"latitude": 35.96840051666667, "longitude": -115.08140228333333, "altitude": 828.8}}
{"timestamp": "2025-12-21T08:32:54.057404", "type": "gps", "data": {"raw": "$GPGSV,1,1,02,03,39,184,18,09,56,324,23,8*6C", "type": "$GPGSV", "timestamp": "2025-12-21T08:32:54.057399"}, "gps_position": {"latitude": 35.96840051666667, "longitude": -115.08140228333333, "altitude": 828.8}}
{"timestamp": "2025-12-21T08:32:54.057925", "type": "gps", "data": {"raw": "$GLGSV,1,1,04,02,70,005,17,13,44,220,20,12,81,007,29,01,47,126,22,1*7B", "type": "$GLGSV", "timestamp": "2025-12-21T08:32:54.057917"}, "gps_position": {"latitude": 35.96840051666667, "longitude": -115.08140228333333, "altitude": 828.8}}
{"timestamp": "2025-12-21T08:32:54.057985", "type": "gps", "data": {"raw": "$GAGSV,3,1,09,02,62,129,31,03,45,092,20,07,21,303,22,08,66,346,27,7*75", "type": "$GAGSV", "timestamp": "2025-12-21T08:32:54.057981"}, "gps_position": {"latitude": 35.96840051666667, "longitude": -115.08140228333333, "altitude": 828.8}}
{"timestamp": "2025-12-21T08:32:54.058022", "type": "gps", "data": {"raw": "$GAGSV,3,2,09,13,15,255,18,16,13,039,14,25,33,050,20,26,10,304,17,7*78", "type": "$GAGSV", "timestamp": "2025-12-21T08:32:54.058019"}, "gps_position": {"latitude": 35.96840051666667, "longitude": -115.08140228333333, "altitude": 828.8}}
{"timestamp": "2025-12-21T08:32:54.058056", "type": "gps", "data": {"raw": "$GAGSV,3,3,09,30,26,191,19,7*4C", "type": "$GAGSV", "timestamp": "2025-12-21T08:32:54.058053"}, "gps_position": {"latitude": 35.96840051666667, "longitude": -115.08140228333333, "altitude": 828.8}}
