{"timestamp": "2025-12-21T09:20:10.070535", "type": "gps", "data": {"raw": "$GPGSV,2,1,05,07,47,289,25,09,77,343,21,16,35,047,20,27,26,094,21,1*63", "type": "$GPGSV", "timestamp": "2025-12-21T09:20:10.070497"}, "gps_position": null}
{"timestamp": "2025-12-21T09:20:10.071016", "type": "gps", "data": {"raw": "$GPGSV,2,2,05,30,22,272,23,1*54", "type": "$GPGSV", "timestamp": "2025-12-21T09:20:10.070997"}, "gps_position": null}
{"timestamp": "2025-12-21T09:20:10.071158", "type": "gps", "data": {"raw": "$GPGSV,1,1,02,04,60,108,18,30,22,272,19,8*61", "type": "$GPGSV", "timestamp": "2025-12-21T09:20:10.071150"}, "gps_position": null}
{"timestamp": "2025-12-21T09:20:10.071243", "type": "gps", "data": {"raw": "$GLGSV,1,1,03,02,78,124,20,12,56,021,24,01,26,146,19,1*48", "type": "$GLGSV", "timestamp": "2025-12-21T09:20:10.071238"}, "gps_position": null}
{"timestamp": "2025-12-21T09:20:10.072196", "type": "gps", "data": {"raw": "$GAGSV,2,1,05,02,68,085,25,03,34,112,20,07,34,312,27,08,76,032,22,7*7A", "type": "$GAGSV", "timestamp": "2025-12-21T09:20:10.072167"}, "gps_position": null}
{"timestamp": "2025-12-21T09:20:10.072457", "type": "gps", "data": {"raw": "$GAGSV,2,2,05,30,44,195,18,7*41", "type": "$GAGSV", "timestamp": "2025-12-21T09:20:10.072446"}, "gps_position": null}
{"timestamp": "2025-12-21T09:20:10.072558", "type": "gps", "data": {"raw": "$GAGSV,1,1,03,02,68,085,15,07,34,312,17,08,76,032,22,1*4D", "type": "$GAGSV", "timestamp": "2025-12-21T09:20:10.072551"}, "gps_position": null}
{"timestamp": "2025-12-21T09:20:10.072636", "type": "gps", "data": {"raw": "$GBGSV,1,1,01,42,16,320,17,1*41", "type": "$GBGSV", "timestamp": "2025-12-21T09:20:10.072627"}, "gps_position": null}
{"timestamp": "2025-12-21T09:20:10.072699", "type": "gps", "data": {"raw": "$GBGSV,2,1,06,21,64,299,25,22,54,163,26,26,27,244,16,36,39,047,22,3*7C", "type": "$GBGSV", "timestamp": "2025-12-21T09:20:10.072694"}, "gps_position": null}
{"timestamp": "2025-12-21T09:20:10.072747", "type": "gps", "data": {"raw": "$GBGSV,2,2,06,42,16,320,23,45,80,316,19,3*76", "type": "$GBGSV", "timestamp": "2025-12-21T09:20:10.072743"}, "gps_position": null}
{"timestamp": "2025-12-21T09:20:10.072792", "type": "gps", "data": {"raw": "$GBGSV,1,1,02,21,64,299,18,22,54,163,18,5*76", "type": "$GBGSV", "timestamp": "2025-12-21T09:20:10.072787"}, "gps_position": null}
{"timestamp": "2025-12-21T09:20:10.072851", "type": "gps", "data": {"raw": "$GNGSA,A,3,07,09,16,27,30,,,,,,,,1.1,0.8,0.7,1*31", "type": "$GNGSA", "timestamp": "2025-12-21T09:20:10.072845"}, "gps_position": null}
{"timestamp": "2025-12-21T09:20:10.072904", "type": "gps", "data": {"raw": "$PSSGR,GSA,A,3,30,,,,,,,,,,,,1.1,0.8,0.7,1,8*49", "type": "$PSSGR", "timestamp": "2025-12-21T09:20:10.072899"}, "gps_position": null}
{"timestamp": "2025-12-21T09:20:10.072950", "type": "gps", "data": {"raw": "$GNGSA,A,3,66,76,,,,,,,,,,,1.1,0.8,0.7,2*3C", "type": "$GNGSA", "timestamp": "2025-12-21T09:20:10.072945"}, "gps_position": null}
{"timestamp": "2025-12-21T09:20:10.072993", "type": "gps", "data": {"raw": "$GNGSA,A,3,02,03,07,08,30,,,,,,,,1.1,0.8,0.7,3*31", "type": "$GNGSA", "timestamp": "2025-12-21T09:20:10.072990"}, "gps_position": null}
{"timestamp": "2025-12-21T09:20:10.073037", "type": "gps", "data": {"raw": "$PSSGR,GSA,A,3,308,,,,,,,,,,,,1.1,0.8,0.7,3,1*7A", "type": "$PSSGR", "timestamp": "2025-12-21T09:20:10.073033"}, "gps_position": null}
{"timestamp": "2025-12-21T09:20:10.073079", "type": "gps", "data": {"raw": "$GNGSA,A,3,21,22,36,42,45,,,,,,,,1.1,0.8,0.7,4*3A", "type": "$GNGSA", "timestamp": "2025-12-21T09:20:10.073075"}, "gps_position": null}
{"timestamp": "2025-12-21T09:20:10.073124", "type": "gps", "data": {"raw": "$PSSGR,GSA,A,3,221,,,,,,,,,,,,1.1,0.8,0.7,4,5*73", "type": "$PSSGR", "timestamp": "2025-12-21T09:20:10.073119"}, "gps_position": null}
{"timestamp": "2025-12-21T09:20:10.073165", "type": "gps", "data": {"raw": "$GNVTG,,T,,M,0.0,N,0.0,K,A*3D", "type": "$GNVTG", "timestamp": "2025-12-21T09:20:10.073161"}, "gps_position": null}
{"timestamp": "2025-12-21T09:20:10.073204", "type": "gps", "data": {"raw": "$GNDTM,W84,,0000.000000,N,00000.000000,E,0.000,W84*41", "type": "$GNDTM", "timestamp": "2025-12-21T09:20:10.073200"}, "gps_position": null}
{"timestamp": "2025-12-21T09:20:10.073322", "type": "gps", "data": {"raw": "$GNRMC,172010.00,A,3558.103754,N,11504.884049,W,0.0,,211225,10.9,E,A,V*50", "type": "$GNRMC", "timestamp": "2025-12-21T09:20:10.073263", "time": "172010.00", "status": "A", "latitude": "35.9683959", "longitude": "-115.08140081666667", "speed": "0.0", "track": ""}, "gps_position": {"latitude": 35.9683959, "longitude": -115.08140081666667, "altitude": null}}
{"timestamp": "2025-12-21T09:20:10.073448", "type": "gps", "data": {"raw": "$GNGNS,172010.00,3558.103754,N,11504.884049,W,AAAANN,17,0.8,828.4,-28.2,,,V*1F", "type": "$GNGNS", "timestamp": "2025-12-21T09:20:10.073443"}, "gps_position": {"latitude": 35.9683959, "longitude": -115.08140081666667, "altitude": null}}
{"timestamp": "2025-12-21T09:20:10.073556", "type": "gps", "data": {"raw": "$GNGGA,172010.00,3558.103754,N,11504.884049,W,1,12,0.8,828.4,M,-28.2,M,,*4A", "type": "$GNGGA", "timestamp": "2025-12-21T09:20:10.073532", "time": "172010.00", "latitude": "35.9683959", "longitude": "-115.08140081666667", "fix_quality": "1", "satellites": "12", "altitude": "828.4"}, "gps_position": {"latitude": 35.9683959, "longitude": -115.08140081666667, "altitude": 2717.847856}}
{"timestamp": "2025-12-21T09:20:10.073633", "type": "gps", "data": {"raw": "$PSMSG,magcal=PASS,bluesky=0*00", "type": "$PSMSG", "timestamp": "2025-12-21T09:20:10.073628"}, "gps_position": {"latitude": 35.9683959, "longitude": -115.08140081666667, "altitude": 2717.847856}}
{"timestamp": "2025-12-21T09:20:11.077278", "type": "gps", "data": {"raw": "$GPGSV,2,1,05,07,47,289,26,09,77,343,21,16,35,047,20,27,26,094,19,1*6B", "type": "$GPGSV", "timestamp": "2025-12-21T09:20:11.077190"}, "gps_position": {"latitude": 35.9683959, "longitude": -115.08140081666667, "altitude": 2717.847856}}
{"timestamp": "2025-12-21T09:20:11.077495", "type": "gps", "data": {"raw": "$GPGSV,2,2,05,30,22,272,23,1*54", "type": "$GPGSV", "timestamp": "2025-12-21T09:20:11.077485"}, "gps_position": {"latitude": 35.9683959, "longitude": -115.08140081666667, "altitude": 2717.847856}}
{"timestamp": "2025-12-21T09:20:11.077568", "type": "gps", "data": {"raw": "$GPGSV,1,1,02,04,60,108,18,30,22,272,22,8*69", "type": "$GPGSV", "timestamp": "2025-12-21T09:20:11.077562"}, "gps_position": {"latitude": 35.9683959, "longitude": -115.08140081666667, "altitude": 2717.847856}}
{"timestamp": "2025-12-21T09:20:11.077620", "type": "gps", "data": {"raw": "$GLGSV,1,1,03,02,78,124,20,12,56,021,24,01,26,146,19,1*48", "type": "$GLGSV", "timestamp": "2025-12-21T09:20:11.077616"}, "gps_position": {"latitude": 35.9683959, "longitude": -115.08140081666667, "altitude": 2717.847856}}
{"timestamp": "2025-12-21T09:20:11.077675", "type": "gps", "data": {"raw": "$GAGSV,2,1,05,02,68,085,25,03,34,112,20,07,34,312,30,08,76,032,22,7*7C", "type": "$GAGSV", "timestamp": "2025-12-21T09:20:11.077671"}, "gps_position": {"latitude": 35.9683959, "longitude": -115.08140081666667, "altitude": 2717.847856}}
{"timestamp": "2025-12-21T09:20:11.077720", "type": "gps", "data": {"raw": "$GAGSV,2,2,05,30,44,195,16,7*4F", "type": "$GAGSV", "timestamp": "2025-12-21T09:20:11.077716"}, "gps_position": {"latitude": 35.9683959, "longitude": -115.08140081666667, "altitude": 2717.847856}}
{"timestamp": "2025-12-21T09:20:11.077762", "type": "gps", "data": {"raw": "$GAGSV,1,1,03,02,68,085,15,07,34,312,17,08,76,032,20,1*4F", "type": "$GAGSV", "timestamp": "2025-12-21T09:20:11.077758"}, "gps_position": {"latitude": 35.9683959, "longitude": -115.08140081666667, "altitude": 2717.847856}}
{"timestamp": "2025-12-21T09:20:11.077801", "type": "gps", "data": {"raw": "$GBGSV,1,1,01,42,16,320,17,1*41", "type": "$GBGSV", "timestamp": "2025-12-21T09:20:11.077798"}, "gps_position": {"latitude": 35.9683959, "longitude": -115.08140081666667, "altitude": 2717.847856}}
{"timestamp": "2025-12-21T09:20:11.077868", "type": "gps", "data": {"raw": "$GBGSV,2,1,06,21,64,299,25,22,54,163,28,26,27,244,16,36,39,047,24,3*74", "type": "$GBGSV", "timestamp": "2025-12-21T09:20:11.077864"}, "gps_position": {"latitude": 35.9683959, "longitude": -115.08140081666667, "altitude": 2717.847856}}
{"timestamp": "2025-12-21T09:20:11.077916", "type": "gps", "data": {"raw": "$GBGSV,2,2,06,42,16,320,23,45,80,316,19,3*76", "type": "$GBGSV", "timestamp": "2025-12-21T09:20:11.077913"}, "gps_position": {"latitude": 35.9683959, "longitude": -115.08140081666667, "altitude": 2717.847856}}
{"timestamp": "2025-12-21T09:20:11.077954", "type": "gps", "data": {"raw": "$GBGSV,1,1,02,21,64,299,18,22,54,163,18,5*76", "type": "$GBGSV", "timestamp": "2025-12-21T09:20:11.077951"}, "gps_position": {"latitude": 35.9683959, "longitude": -115.08140081666667, "altitude": 2717.847856}}
{"timestamp": "2025-12-21T09:20:11.078164", "type": "gps", "data": {"raw": "$GNGSA,A,3,07,09,16,27,30,,,,,,,,1.0,0.8,0.7,1*30", "type": "$GNGSA", "timestamp": "2025-12-21T09:20:11.078159"}, "gps_position": {"latitude": 35.9683959, "longitude": -115.08140081666667, "altitude": 2717.847856}}
{"timestamp": "2025-12-21T09:20:11.078212", "type": "gps", "data": {"raw": "$PSSGR,GSA,A,3,30,,,,,,,,,,,,1.0,0.8,0.7,1,8*48", "type": "$PSSGR", "timestamp": "2025-12-21T09:20:11.078208"}, "gps_position": {"latitude": 35.9683959, "longitude": -115.08140081666667, "altitude": 2717.847856}}
{"timestamp": "2025-12-21T09:20:11.078248", "type": "gps", "data": {"raw": "$GNGSA,A,3,66,76,,,,,,,,,,,1.0,0.8,0.7,2*3D", "type": "$GNGSA", "timestamp": "2025-12-21T09:20:11.078245"}, "gps_position": {"latitude": 35.9683959, "longitude": -115.08140081666667, "altitude": 2717.847856}}
{"timestamp": "2025-12-21T09:20:11.078283", "type": "gps", "data": {"raw": "$GNGSA,A,3,02,03,07,08,30,,,,,,,,1.0,0.8,0.7,3*30", "type": "$GNGSA", "timestamp": "2025-12-21T09:20:11.078280"}, "gps_position": {"latitude": 35.9683959, "longitude": -115.08140081666667, "altitude": 2717.847856}}
{"timestamp": "2025-12-21T09:20:11.078318", "type": "gps", "data": {"raw": "$PSSGR,GSA,A,3,308,,,,,,,,,,,,1.0,0.8,0.7,3,1*7B", "type": "$PSSGR", "timestamp": "2025-12-21T09:20:11.078315"}, "gps_position": {"latitude": 35.9683959, "longitude": -115.08140081666667, "altitude": 2717.847856}}
{"timestamp": "2025-12-21T09:20:11.078352", "type": "gps", "data": {"raw": "$GNGSA,A,3,21,22,36,42,45,,,,,,,,1.0,0.8,0.7,4*3B", "type": "$GNGSA", "timestamp": "2025-12-21T09:20:11.078349"}, "gps_position": {"latitude": 35.9683959, "longitude": -115.08140081666667, "altitude": 2717.847856}}
{"timestamp": "2025-12-21T09:20:11.078386", "type": "gps", "data": {"raw": "$PSSGR,GSA,A,3,222,,,,,,,,,,,,1.0,0.8,0.7,4,5*71", "type": "$PSSGR", "timestamp": "2025-12-21T09:20:11.078383"}, "gps_position": {"latitude": 35.9683959, "longitude": -115.08140081666667, "altitude": 2717.847856}}
{"timestamp": "2025-12-21T09:20:11.078420", "type": "gps", "data": {"raw": "$GNVTG,,T,,M,0.0,N,0.0,K,A*3D", "type": "$GNVTG", "timestamp": "2025-12-21T09:20:11.078418"}, "gps_position": {"latitude": 35.9683959, "longitude": -115.08140081666667, "altitude": 2717.847856}}
{"timestamp": "2025-12-21T09:20:11.078456", "type": "gps", "data": {"raw": "$GNDTM,W84,,0000.000000,N,00000.000000,E,0.000,W84*41", "type": "$GNDTM", "timestamp": "2025-12-21T09:20:11.078453"}, "gps_position": {"latitude": 35.9683959, "longitude": -115.08140081666667, "altitude": 2717.847856}}
{"timestamp": "2025-12-21T09:20:11.078510", "type": "gps", "data": {"raw": "$GNRMC,172011.00,A,3558.103754,N,11504.884049,W,0.0,,211225,10.9,E,A,V*51", "type": "$GNRMC", "timestamp": "2025-12-21T09:20:11.078488", "time": "172011.00", "status": "A", "latitude": "35.9683959", "longitude": "-115.08140081666667", "speed": "0.0", "track": ""}, "gps_position": {"latitude": 35.9683959, "longitude": -115.08140081666667, "altitude": 2717.847856}}
{"timestamp": "2025-12-21T09:20:11.078565", "type": "gps", "data": {"raw": "$GNGNS,172011.00,3558.103754,N,11504.884049,W,AAAANN,17,0.8,828.4,-28.2,,,V*1E", "type": "$GNGNS", "timestamp": "2025-12-21T09:20:11.078561"}, "gps_position": {"latitude": 35.9683959, "longitude": -115.08140081666667, "altitude": 2717.847856}}
{"timestamp": "2025-12-21T09:20:11.078618", "type": "gps", "data": {"raw": "$GNGGA,172011.00,3558.103754,N,11504.884049,W,1,12,0.8,828.4,M,-28.2,M,,*4B", "type": "$GNGGA", "timestamp": "2025-12-21T09:20:11.078599", "time": "172011.00", "latitude": "35.9683959", "longitude": "-115.08140081666667", "fix_quality": "1", "satellites": "12", "altitude": "828.4"}, "gps_position": {"latitude": 35.9683959, "longitude": -115.08140081666667, "altitude": 2717.847856}}
{"timestamp": "2025-12-21T09:20:11.078663", "type": "gps", "data": {"raw": "$PSMSG,magcal=PASS,bluesky=0*00", "type": "$PSMSG", "timestamp": "2025-12-21T09:20:11.078660"}, "gps_position": {"latitude": 35.9683959, "longitude": -115.08140081666667, "altitude": 2717.847856}}
{"timestamp": "2025-12-21T09:20:12.075463", "type": "gps", "data": {"raw": "$GPGSV,2,1,05,07,47,289,26,09,77,343,21,16,35,047,21,27,26,094,25,1*65", "type": "$GPGSV", "timestamp": "2025-12-21T09:20:12.075376"}, "gps_position": {"latitude": 35.9683959, "longitude": -115.08140081666667, "altitude": 2717.847856}}
{"timestamp": "2025-12-21T09:20:12.075682", "type": "gps", "data": {"raw": "$GPGSV,2,2,05,30,22,272,23,1*54", "type": "$GPGSV", "timestamp": "2025-12-21T09:20:12.075673"}, "gps_position": {"latitude": 35.9683959, "longitude": -115.08140081666667, "altitude": 2717.847856}}
{"timestamp": "2025-12-21T09:20:12.075755", "type": "gps", "data": {"raw": "$GPGSV,1,1,02,04,60,108,18,30,22,272,23,8*68", "type": "$GPGSV", "timestamp": "2025-12-21T09:20:12.075750"}, "gps_position": {"latitude": 35.9683959, "longitude": -115.08140081666667, "altitude": 2717.847856}}
{"timestamp": "2025-12-21T09:20:12.075806", "type": "gps", "data": {"raw": "$GLGSV,1,1,03,02,78,124,20,12,55,021,23,01,26,146,19,1*4C", "type": "$GLGSV", "timestamp": "2025-12-21T09:20:12.075802"}, "gps_position": {"latitude": 35.9683959, "longitude": -115.08140081666667, "altitude": 2717.847856}}
{"timestamp": "2025-12-21T09:20:12.075854", "type": "gps", "data": {"raw": "$GAGSV,2,1,05,02,68,085,24,03,34,112,20,07,34,312,29,08,76,032,23,7*74", "type": "$GAGSV", "timestamp": "2025-12-21T09:20:12.075849"}, "gps_position": {"latitude": 35.9683959, "longitude": -115.08140081666667, "altitude": 2717.847856}}
{"timestamp": "2025-12-21T09:20:12.075898", "type": "gps", "data": {"raw": "$GAGSV,2,2,05,30,44,195,16,7*4F", "type": "$GAGSV", "timestamp": "2025-12-21T09:20:12.075895"}, "gps_position": {"latitude": 35.9683959, "longitude": -115.08140081666667, "altitude": 2717.847856}}
{"timestamp": "2025-12-21T09:20:12.075941", "type": "gps", "data": {"raw": "$GAGSV,1,1,03,02,68,085,15,07,34,312,17,08,76,032,20,1*4F", "type": "$GAGSV", "timestamp": "2025-12-21T09:20:12.075938"}, "gps_position": {"latitude": 35.9683959, "longitude": -115.08140081666667, "altitude": 2717.847856}}
{"timestamp": "2025-12-21T09:20:12.075980", "type": "gps", "data": {"raw": "$GBGSV,1,1,01,42,16,320,17,1*41", "type": "$GBGSV", "timestamp": "2025-12-21T09:20:12.075977"}, "gps_position": {"latitude": 35.9683959, "longitude": -115.08140081666667, "altitude": 2717.847856}}
{"timestamp": "2025-12-21T09:20:12.076043", "type": "gps", "data": {"raw": "$GBGSV,2,1,06,21,64,299,25,22,54,163,28,26,27,244,16,36,39,047,24,3*74", "type": "$GBGSV", "timestamp": "2025-12-21T09:20:12.076039"}, "gps_position": {"latitude": 35.9683959, "longitude": -115.08140081666667, "altitude": 2717.847856}}
{"timestamp": "2025-12-21T09:20:12.076083", "type": "gps", "data": {"raw": "$GBGSV,2,2,06,42,16,320,24,45,80,316,20,3*7B", "type": "$GBGSV", "timestamp": "2025-12-21T09:20:12.076080"}, "gps_position": {"latitude": 35.9683959, "longitude": -115.08140081666667, "altitude": 2717.847856}}
{"timestamp": "2025-12-21T09:20:12.076119", "type": "gps", "data": {"raw": "$GBGSV,1,1,02,21,64,299,18,22,54,163,18,5*76", "type": "$GBGSV", "timestamp": "2025-12-21T09:20:12.076116"}, "gps_position": {"latitude": 35.9683959, "longitude": -115.08140081666667, "altitude": 2717.847856}}
{"timestamp": "2025-12-21T09:20:12.076155", "type": "gps", "data": {"raw": "$GNGSA,A,3,07,09,16,27,30,,,,,,,,1.1,0.8,0.7,1*31", "type": "$GNGSA", "timestamp": "2025-12-21T09:20:12.076152"}, "gps_position": {"latitude": 35.9683959, "longitude": -115.08140081666667, "altitude": 2717.847856}}
{"timestamp": "2025-12-21T09:20:12.076207", "type": "gps", "data": {"raw": "$PSSGR,GSA,A,3,30,,,,,,,,,,,,1.1,0.8,0.7,1,8*49", "type": "$PSSGR", "timestamp": "2025-12-21T09:20:12.076204"}, "gps_position": {"latitude": 35.9683959, "longitude": -115.08140081666667, "altitude": 2717.847856}}
{"timestamp": "2025-12-21T09:20:12.076245", "type": "gps", "data": {"raw": "$GNGSA,A,3,66,76,,,,,,,,,,,1.1,0.8,0.7,2*3C", "type": "$GNGSA", "timestamp": "2025-12-21T09:20:12.076242"}, "gps_position": {"latitude": 35.9683959, "longitude": -115.08140081666667, "altitude": 2717.847856}}
{"timestamp": "2025-12-21T09:20:12.076281", "type": "gps", "data": {"raw": "$GNGSA,A,3,02,03,07,08,30,,,,,,,,1.1,0.8,0.7,3*31", "type": "$GNGSA", "timestamp": "2025-12-21T09:20:12.076278"}, "gps_position": {"latitude": 35.9683959, "longitude": -115.08140081666667, "altitude": 2717.847856}}
{"timestamp": "2025-12-21T09:20:12.076317", "type": "gps", "data": {"raw": "$PSSGR,GSA,A,3,308,,,,,,,,,,,,1.1,0.8,0.7,3,1*7A", "type": "$PSSGR", "timestamp": "2025-12-21T09:20:12.076314"}, "gps_position": {"latitude": 35.9683959, "longitude": -115.08140081666667, "altitude": 2717.847856}}
{"timestamp": "2025-12-21T09:20:12.076352", "type": "gps", "data": {"raw": "$GNGSA,A,3,21,22,36,42,45,,,,,,,,1.1,0.8,0.7,4*3A", "type": "$GNGSA", "timestamp": "2025-12-21T09:20:12.076349"}, "gps_position": {"latitude": 35.9683959, "longitude": -115.08140081666667, "altitude": 2717.847856}}
{"timestamp": "2025-12-21T09:20:12.076389", "type": "gps", "data": {"raw": "$PSSGR,GSA,A,3,222,,,,,,,,,,,,1.1,0.8,0.7,4,5*70", "type": "$PSSGR", "timestamp": "2025-12-21T09:20:12.076386"}, "gps_position": {"latitude": 35.9683959, "longitude": -115.08140081666667, "altitude": 2717.847856}}
{"timestamp": "2025-12-21T09:20:12.076425", "type": "gps", "data": {"raw": "$GNVTG,,T,,M,0.0,N,0.0,K,A*3D", "type": "$GNVTG", "timestamp": "2025-12-21T09:20:12.076422"}, "gps_position": {"latitude": 35.9683959, "longitude": -115.08140081666667, "altitude": 2717.847856}}
{"timestamp": "2025-12-21T09:20:12.076460", "type": "gps", "data": {"raw": "$GNDTM,W84,,0000.000000,N,00000.000000,E,0.000,W84*41", "type": "$GNDTM", "timestamp": "2025-12-21T09:20:12.076457"}, "gps_position": {"latitude": 35.9683959, "longitude": -115.08140081666667, "altitude": 2717.847856}}
{"timestamp": "2025-12-21T09:20:12.076514", "type": "gps", "data": {"raw": "$GNRMC,172012.00,A,3558.103755,N,11504.884049,W,0.0,,211225,10.9,E,A,V*53", "type": "$GNRMC", "timestamp": "2025-12-21T09:20:12.076493", "time": "172012.00", "status": "A", "latitude": "35.968395916666665", "longitude": "-115.08140081666667", "speed": "0.0", "track": ""}, "gps_position": {"latitude": 35.968395916666665, "longitude": -115.08140081666667, "altitude": 2717.847856}}
{"timestamp": "2025-12-21T09:20:12.076563", "type": "gps", "data": {"raw": "$GNGNS,172012.00,3558.103755,N,11504.884049,W,AAAANN,17,0.8,828.4,-28.2,,,V*1C", "type": "$GNGNS", "timestamp": "2025-12-21T09:20:12.076559"}, "gps_position": {"latitude": 35.968395916666665, "longitude": -115.08140081666667, "altitude": 2717.847856}}
{"timestamp": "2025-12-21T09:20:12.076617", "type": "gps", "data": {"raw": "$GNGGA,172012.00,3558.103755,N,11504.884049,W,1,12,0.8,828.4,M,-28.2,M,,*49", "type": "$GNGGA", "timestamp": "2025-12-21T09:20:12.076603", "time": "172012.00", "latitude": "35.968395916666665", "longitude": "-115.08140081666667", "fix_quality": "1", "satellites": "12", "altitude": "828.4"}, "gps_position": {"latitude": 35.968395916666665, "longitude": -115.08140081666667, "altitude": 2717.847856}}
{"timestamp": "2025-12-21T09:20:12.076662", "type": "gps", "data": {"raw": "$PSMSG,magcal=PASS,bluesky=0*00", "type": "$PSMSG", "timestamp": "2025-12-21T09:20:12.076659"}, "gps_position": {"latitude": 35.968395916666665, "longitude": -115.08140081666667, "altitude": 2717.847856}}
{"timestamp": "2025-12-21T09:20:13.061898", "type": "gps", "data": {"raw": "$GPGSV,2,1,05,07,47,289,26,09,77,343,21,16,35,047,24,27,26,094,25,1*60", "type": "$GPGSV", "timestamp": "2025-12-21T09:20:13.061878"}, "gps_position": {"latitude": 35.968395916666665, "longitude": -115.08140081666667, "altitude": 2717.847856}}
{"timestamp": "2025-12-21T09:20:13.062140", "type": "gps", "data": {"raw": "$GPGSV,2,2,05,30,22,272,23,1*54", "type": "$GPGSV", "timestamp": "2025-12-21T09:20:13.062130"}, "gps_position": {"latitude": 35.968395916666665, "longitude": -115.08140081666667, "altitude": 2717.847856}}
{"timestamp": "2025-12-21T09:20:13.062258", "type": "gps", "data": {"raw": "$GPGSV,1,1,02,04,60,108,18,30,22,272,22,8*69", "type": "$GPGSV", "timestamp": "2025-12-21T09:20:13.062251"}, "gps_position": {"latitude": 35.968395916666665, "longitude": -115.08140081666667, "altitude": 2717.847856}}
{"timestamp": "2025-12-21T09:20:13.062338", "type": "gps", "data": {"raw": "$GLGSV,1,1,03,02,78,124,20,12,55,021,24,01,26,146,19,1*4B", "type": "$GLGSV", "timestamp": "2025-12-21T09:20:13.062333"}, "gps_position": {"latitude": 35.968395916666665, "longitude": -115.08140081666667, "altitude": 2717.847856}}
{"timestamp": "2025-12-21T09:20:13.062623", "type": "gps", "data": {"raw": "$GAGSV,2,1,05,02,68,085,26,03,34,112,22,07,34,312,29,08,76,032,24,7*73", "type": "$GAGSV", "timestamp": "2025-12-21T09:20:13.062579"}, "gps_position": {"latitude": 35.968395916666665, "longitude": -115.08140081666667, "altitude": 2717.847856}}
{"timestamp": "2025-12-21T09:20:13.062731", "type": "gps", "data": {"raw": "$GAGSV,2,2,05,30,44,195,16,7*4F", "type": "$GAGSV", "timestamp": "2025-12-21T09:20:13.062725"}, "gps_position": {"latitude": 35.968395916666665, "longitude": -115.08140081666667, "altitude": 2717.847856}}
{"timestamp": "2025-12-21T09:20:13.062792", "type": "gps", "data": {"raw": "$GAGSV,1,1,03,02,68,085,15,07,34,312,17,08,76,032,20,1*4F", "type": "$GAGSV", "timestamp": "2025-12-21T09:20:13.062788"}, "gps_position": {"latitude": 35.968395916666665, "longitude": -115.08140081666667, "altitude": 2717.847856}}
{"timestamp": "2025-12-21T09:20:13.062844", "type": "gps", "data": {"raw": "$GBGSV,1,1,01,42,16,320,17,1*41", "type": "$GBGSV", "timestamp": "2025-12-21T09:20:13.062840"}, "gps_position": {"latitude": 35.968395916666665, "longitude": -115.08140081666667, "altitude": 2717.847856}}
{"timestamp": "2025-12-21T09:20:13.062897", "type": "gps", "data": {"raw": "$GBGSV,2,1,06,21,64,299,26,22,54,163,28,26,27,244,11,36,39,047,24,3*70", "type": "$GBGSV", "timestamp": "2025-12-21T09:20:13.062893"}, "gps_position": {"latitude": 35.968395916666665, "longitude": -115.08140081666667, "altitude": 2717.847856}}
{"timestamp": "2025-12-21T09:20:13.062949", "type": "gps", "data": {"raw": "$GBGSV,2,2,06,42,16,320,24,45,80,316,23,3*78", "type": "$GBGSV", "timestamp": "2025-12-21T09:20:13.062944"}, "gps_position": {"latitude": 35.968395916666665, "longitude": -115.08140081666667, "altitude": 2717.847856}}
{"timestamp": "2025-12-21T09:20:13.062997", "type": "gps", "data": {"raw": "$GBGSV,1,1,02,21,64,299,18,22,54,163,18,5*76", "type": "$GBGSV", "timestamp": "2025-12-21T09:20:13.062994"}, "gps_position": {"latitude": 35.968395916666665, "longitude": -115.08140081666667, "altitude": 2717.847856}}
{"timestamp": "2025-12-21T09:20:13.063069", "type": "gps", "data": {"raw": "$GNGSA,A,3,07,09,16,27,30,,,,,,,,1.1,0.8,0.7,1*31", "type": "$GNGSA", "timestamp": "2025-12-21T09:20:13.063064"}, "gps_position": {"latitude": 35.968395916666665, "longitude": -115.08140081666667, "altitude": 2717.847856}}
{"timestamp": "2025-12-21T09:20:13.063124", "type": "gps", "data": {"raw": "$PSSGR,GSA,A,3,30,,,,,,,,,,,,1.1,0.8,0.7,1,8*49", "type": "$PSSGR", "timestamp": "2025-12-21T09:20:13.063119"}, "gps_position": {"latitude": 35.968395916666665, "longitude": -115.08140081666667, "altitude": 2717.847856}}
{"timestamp": "2025-12-21T09:20:13.063177", "type": "gps", "data": {"raw": "$GNGSA,A,3,66,76,,,,,,,,,,,1.1,0.8,0.7,2*3C", "type": "$GNGSA", "timestamp": "2025-12-21T09:20:13.063173"}, "gps_position": {"latitude": 35.968395916666665, "longitude": -115.08140081666667, "altitude": 2717.847856}}
{"timestamp": "2025-12-21T09:20:13.063225", "type": "gps", "data": {"raw": "$GNGSA,A,3,02,03,07,08,30,,,,,,,,1.1,0.8,0.7,3*31", "type": "$GNGSA", "timestamp": "2025-12-21T09:20:13.063221"}, "gps_position": {"latitude": 35.968395916666665, "longitude": -115.08140081666667, "altitude": 2717.847856}}
{"timestamp": "2025-12-21T09:20:13.063278", "type": "gps", "data": {"raw": "$PSSGR,GSA,A,3,308,,,,,,,,,,,,1.1,0.8,0.7,3,1*7A", "type": "$PSSGR", "timestamp": "2025-12-21T09:20:13.063274"}, "gps_position": {"latitude": 35.968395916666665, "longitude": -115.08140081666667, "altitude": 2717.847856}}
{"timestamp": "2025-12-21T09:20:13.063326", "type": "gps", "data": {"raw": "$GNGSA,A,3,21,22,36,42,45,,,,,,,,1.1,0.8,0.7,4*3A", "type": "$GNGSA", "timestamp": "2025-12-21T09:20:13.063323"}, "gps_position": {"latitude": 35.968395916666665, "longitude": -115.08140081666667, "altitude": 2717.847856}}
{"timestamp": "2025-12-21T09:20:13.063373", "type": "gps", "data": {"raw": "$PSSGR,GSA,A,3,222,,,,,,,,,,,,1.1,0.8,0.7,4,5*70", "type": "$PSSGR", "timestamp": "2025-12-21T09:20:13.063370"}, "gps_position": {"latitude": 35.968395916666665, "longitude": -115.08140081666667, "altitude": 2717.847856}}
{"timestamp": "2025-12-21T09:20:13.063420", "type": "gps", "data": {"raw": "$GNVTG,,T,,M,0.0,N,0.0,K,A*3D", "type": "$GNVTG", "timestamp": "2025-12-21T09:20:13.063416"}, "gps_position": {"latitude": 35.968395916666665, "longitude": -115.08140081666667, "altitude": 2717.847856}}
{"timestamp": "2025-12-21T09:20:13.063466", "type": "gps", "data": {"raw": "$GNDTM,W84,,0000.000000,N,00000.000000,E,0.000,W84*41", "type": "$GNDTM", "timestamp": "2025-12-21T09:20:13.063462"}, "gps_position": {"latitude": 35.968395916666665, "longitude": -115.08140081666667, "altitude": 2717.847856}}
{"timestamp": "2025-12-21T09:20:13.063533", "type": "gps", "data": {"raw": "$GNRMC,172013.00,A,3558.103755,N,11504.884049,W,0.0,,211225,10.9,E,A,V*52", "type": "$GNRMC", "timestamp": "2025-12-21T09:20:13.063510", "time": "172013.00", "status": "A", "latitude": "35.968395916666665", "longitude": "-115.08140081666667", "speed": "0.0", "track": ""}, "gps_position": {"latitude": 35.968395916666665, "longitude": -115.08140081666667, "altitude": 2717.847856}}
{"timestamp": "2025-12-21T09:20:13.063590", "type": "gps", "data": {"raw": "$GNGNS,172013.00,3558.103755,N,11504.884049,W,AAAANN,17,0.8,828.4,-28.2,,,V*1D", "type": "$GNGNS", "timestamp": "2025-12-21T09:20:13.063586"}, "gps_position": {"latitude": 35.968395916666665, "longitude": -115.08140081666667, "altitude": 2717.847856}}
{"timestamp": "2025-12-21T09:20:13.063653", "type": "gps", "data": {"raw": "$GNGGA,172013.00,3558.103755,N,11504.884049,W,1,12,0.8,828.4,M,-28.2,M,,*48", "type": "$GNGGA", "timestamp": "2025-12-21T09:20:13.063636", "time": "172013.00", "latitude": "35.968395916666665", "longitude": "-115.08140081666667", "fix_quality": "1", "satellites": "12", "altitude": "828.4"}, "gps_position": {"latitude": 35.968395916666665, "longitude": -115.08140081666667, "altitude": 2717.847856}}
{"timestamp": "2025-12-21T09:20:13.063706", "type": "gps", "data": {"raw": "$PSMSG,magcal=PASS,bluesky=0*00", "type": "$PSMSG", "timestamp": "2025-12-21T09:20:13.063702"}, "gps_position": {"latitude": 35.968395916666665, "longitude": -115.08140081666667, "altitude": 2717.847856}}
{"timestamp": "2025-12-21T09:20:14.080458", "type": "gps", "data": {"raw": "$GPGSV,2,1,05,07,47,289,26,09,77,343,21,16,35,047,24,27,26,094,21,1*64", "type": "$GPGSV", "timestamp": "2025-12-21T09:20:14.080439"}, "gps_position": {"latitude": 35.968395916666665, "longitude": -115.08140081666667, "altitude": 2717.847856}}
{"timestamp": "2025-12-21T09:20:14.080659", "type": "gps", "data": {"raw": "$GPGSV,2,2,05,30,22,272,23,1*54", "type": "$GPGSV", "timestamp": "2025-12-21T09:20:14.080651"}, "gps_position": {"latitude": 35.968395916666665, "longitude": -115.08140081666667, "altitude": 2717.847856}}
{"timestamp": "2025-12-21T09:20:14.080741", "type": "gps", "data": {"raw": "$GPGSV,1,1,02,04,60,108,18,30,22,272,22,8*69", "type": "$GPGSV", "timestamp": "2025-12-21T09:20:14.080737"}, "gps_position": {"latitude": 35.968395916666665, "longitude": -115.08140081666667, "altitude": 2717.847856}}
{"timestamp": "2025-12-21T09:20:14.080800", "type": "gps", "data": {"raw": "$GLGSV,1,1,03,02,78,124,20,12,55,021,25,01,26,146,19,1*4A", "type": "$GLGSV", "timestamp": "2025-12-21T09:20:14.080796"}, "gps_position": {"latitude": 35.968395916666665, "longitude": -115.08140081666667, "altitude": 2717.847856}}
{"timestamp": "2025-12-21T09:20:14.081075", "type": "gps", "data": {"raw": "$GAGSV,2,1,05,02,68,085,26,03,34,112,22,07,34,312,28,08,76,032,23,7*75", "type": "$GAGSV", "timestamp": "2025-12-21T09:20:14.081030"}, "gps_position": {"latitude": 35.968395916666665, "longitude": -115.08140081666667, "altitude": 2717.847856}}
{"timestamp": "2025-12-21T09:20:14.081170", "type": "gps", "data": {"raw": "$GAGSV,2,2,05,30,44,195,16,7*4F", "type": "$GAGSV", "timestamp": "2025-12-21T09:20:14.081165"}, "gps_position": {"latitude": 35.968395916666665, "longitude": -115.08140081666667, "altitude": 2717.847856}}
{"timestamp": "2025-12-21T09:20:14.081219", "type": "gps", "data": {"raw": "$GAGSV,1,1,03,02,68,085,15,07,34,312,18,08,76,032,20,1*40", "type": "$GAGSV", "timestamp": "2025-12-21T09:20:14.081216"}, "gps_position": {"latitude": 35.968395916666665, "longitude": -115.08140081666667, "altitude": 2717.847856}}
{"timestamp": "2025-12-21T09:20:14.081262", "type": "gps", "data": {"raw": "$GBGSV,1,1,01,42,16,320,17,1*41", "type": "$GBGSV", "timestamp": "2025-12-21T09:20:14.081259"}, "gps_position": {"latitude": 35.968395916666665, "longitude": -115.08140081666667, "altitude": 2717.847856}}
{"timestamp": "2025-12-21T09:20:14.081304", "type": "gps", "data": {"raw": "$GBGSV,2,1,06,21,64,299,26,22,54,163,27,26,27,244,11,36,39,047,24,3*7F", "type": "$GBGSV", "timestamp": "2025-12-21T09:20:14.081300"}, "gps_position": {"latitude": 35.968395916666665, "longitude": -115.08140081666667, "altitude": 2717.847856}}
{"timestamp": "2025-12-21T09:20:14.081345", "type": "gps", "data": {"raw": "$GBGSV,2,2,06,42,16,320,24,45,80,316,24,3*7F", "type": "$GBGSV", "timestamp": "2025-12-21T09:20:14.081342"}, "gps_position": {"latitude": 35.968395916666665, "longitude": -115.08140081666667, "altitude": 2717.847856}}
{"timestamp": "2025-12-21T09:20:14.081386", "type": "gps", "data": {"raw": "$GBGSV,1,1,02,21,64,299,17,22,54,163,18,5*79", "type": "$GBGSV", "timestamp": "2025-12-21T09:20:14.081383"}, "gps_position": {"latitude": 35.968395916666665, "longitude": -115.08140081666667, "altitude": 2717.847856}}
{"timestamp": "2025-12-21T09:20:14.081429", "type": "gps", "data": {"raw": "$GNGSA,A,3,07,09,16,27,30,,,,,,,,1.1,0.8,0.7,1*31", "type": "$GNGSA", "timestamp": "2025-12-21T09:20:14.081426"}, "gps_position": {"latitude": 35.968395916666665, "longitude": -115.08140081666667, "altitude": 2717.847856}}
{"timestamp": "2025-12-21T09:20:14.081469", "type": "gps", "data": {"raw": "$PSSGR,GSA,A,3,30,,,,,,,,,,,,1.1,0.8,0.7,1,8*49", "type": "$PSSGR", "timestamp": "2025-12-21T09:20:14.081466"}, "gps_position": {"latitude": 35.968395916666665, "longitude": -115.08140081666667, "altitude": 2717.847856}}
{"timestamp": "2025-12-21T09:20:14.081510", "type": "gps", "data": {"raw": "$GNGSA,A,3,66,76,,,,,,,,,,,1.1,0.8,0.7,2*3C", "type": "$GNGSA", "timestamp": "2025-12-21T09:20:14.081507"}, "gps_position": {"latitude": 35.968395916666665, "longitude": -115.08140081666667, "altitude": 2717.847856}}
{"timestamp": "2025-12-21T09:20:14.081550", "type": "gps", "data": {"raw": "$GNGSA,A,3,02,03,07,08,30,,,,,,,,1.1,0.8,0.7,3*31", "type": "$GNGSA", "timestamp": "2025-12-21T09:20:14.081547"}, "gps_position": {"latitude": 35.968395916666665, "longitude": -115.08140081666667, "altitude": 2717.847856}}
{"timestamp": "2025-12-21T09:20:14.081591", "type": "gps", "data": {"raw": "$PSSGR,GSA,A,3,308,,,,,,,,,,,,1.1,0.8,0.7,3,1*7A", "type": "$PSSGR", "timestamp": "2025-12-21T09:20:14.081587"}, "gps_position": {"latitude": 35.968395916666665, "longitude": -115.08140081666667, "altitude": 2717.847856}}
{"timestamp": "2025-12-21T09:20:14.081630", "type": "gps", "data": {"raw": "$GNGSA,A,3,21,22,36,42,45,,,,,,,,1.1,0.8,0.7,4*3A", "type": "$GNGSA", "timestamp": "2025-12-21T09:20:14.081627"}, "gps_position": {"latitude": 35.968395916666665, "longitude": -115.08140081666667, "altitude": 2717.847856}}
{"timestamp": "2025-12-21T09:20:14.081685", "type": "gps", "data": {"raw": "$PSSGR,GSA,A,3,222,,,,,,,,,,,,1.1,0.8,0.7,4,5*70", "type": "$PSSGR", "timestamp": "2025-12-21T09:20:14.081682"}, "gps_position": {"latitude": 35.968395916666665, "longitude": -115.08140081666667, "altitude": 2717.847856}}
{"timestamp": "2025-12-21T09:20:14.081727", "type": "gps", "data": {"raw": "$GNVTG,,T,,M,0.0,N,0.0,K,A*3D", "type": "$GNVTG", "timestamp": "2025-12-21T09:20:14.081724"}, "gps_position": {"latitude": 35.968395916666665, "longitude": -115.08140081666667, "altitude": 2717.847856}}
{"timestamp": "2025-12-21T09:20:14.081767", "type": "gps", "data": {"raw": "$GNDTM,W84,,0000.000000,N,00000.000000,E,0.000,W84*41", "type": "$GNDTM", "timestamp": "2025-12-21T09:20:14.081764"}, "gps_position": {"latitude": 35.968395916666665, "longitude": -115.08140081666667, "altitude": 2717.847856}}
{"timestamp": "2025-12-21T09:20:14.081834", "type": "gps", "data": {"raw": "$GNRMC,172014.00,A,3558.103756,N,11504.884049,W,0.0,,211225,10.9,E,A,V*56", "type": "$GNRMC", "timestamp": "2025-12-21T09:20:14.081804", "time": "172014.00", "status": "A", "latitude": "35.96839593333333", "longitude": "-115.08140081666667", "speed": "0.0", "track": ""}, "gps_position": {"latitude": 35.96839593333333, "longitude": -115.08140081666667, "altitude": 2717.847856}}
{"timestamp": "2025-12-21T09:20:14.081899", "type": "gps", "data": {"raw": "$GNGNS,172014.00,3558.103756,N,11504.884049,W,AAAANN,17,0.8,828.4,-28.2,,,V*19", "type": "$GNGNS", "timestamp": "2025-12-21T09:20:14.081895"}, "gps_position": {"latitude": 35.96839593333333, "longitude": -115.08140081666667, "altitude": 2717.847856}}
{"timestamp": "2025-12-21T09:20:14.081957", "type": "gps", "data": {"raw": "$GNGGA,172014.00,3558.103756,N,11504.884049,W,1,12,0.8,828.4,M,-28.2,M,,*4C", "type": "$GNGGA", "timestamp": "2025-12-21T09:20:14.081941", "time": "172014.00", "latitude": "35.96839593333333", "longitude": "-115.08140081666667", "fix_quality": "1", "satellites": "12", "altitude": "828.4"}, "gps_position": {"latitude": 35.96839593333333, "longitude": -115.08140081666667, "altitude": 2717.847856}}
{"timestamp": "2025-12-21T09:20:14.082003", "type": "gps", "data": {"raw": "$PSMSG,magcal=PASS,bluesky=0*00", "type": "$PSMSG", "timestamp": "2025-12-21T09:20:14.082000"}, "gps_position": {"latitude": 35.96839593333333, "longitude": -115.08140081666667, "altitude": 2717.847856}}
{"timestamp": "2025-12-21T09:20:15.066261", "type": "gps", "data": {"raw": "$GPGSV,2,1,05,07,47,289,27,09,77,343,22,16,35,047,24,27,26,094,21,1*66", "type": "$GPGSV", "timestamp": "2025-12-21T09:20:15.066190"}, "gps_position": {"latitude": 35.96839593333333, "longitude": -115.08140081666667, "altitude": 2717.847856}}
{"timestamp": "2025-12-21T09:20:15.066512", "type": "gps", "data": {"raw": "$GPGSV,2,2,05,30,22,272,23,1*54", "type": "$GPGSV", "timestamp": "2025-12-21T09:20:15.066501"}, "gps_position": {"latitude": 35.96839593333333, "longitude": -115.08140081666667, "altitude": 2717.847856}}
{"timestamp": "2025-12-21T09:20:15.066608", "type": "gps", "data": {"raw": "$GPGSV,1,1,02,04,60,108,18,30,22,272,22,8*69", "type": "$GPGSV", "timestamp": "2025-12-21T09:20:15.066603"}, "gps_position": {"latitude": 35.96839593333333, "longitude": -115.08140081666667, "altitude": 2717.847856}}
{"timestamp": "2025-12-21T09:20:15.066685", "type": "gps", "data": {"raw": "$GLGSV,1,1,03,02,78,124,20,12,55,021,24,01,26,146,19,1*4B", "type": "$GLGSV", "timestamp": "2025-12-21T09:20:15.066680"}, "gps_position": {"latitude": 35.96839593333333, "longitude": -115.08140081666667, "altitude": 2717.847856}}
{"timestamp": "2025-12-21T09:20:15.066748", "type": "gps", "data": {"raw": "$GAGSV,2,1,05,02,68,085,26,03,34,112,20,07,34,312,29,08,76,032,23,7*76", "type": "$GAGSV", "timestamp": "2025-12-21T09:20:15.066744"}, "gps_position": {"latitude": 35.96839593333333, "longitude": -115.08140081666667, "altitude": 2717.847856}}
{"timestamp": "2025-12-21T09:20:15.066804", "type": "gps", "data": {"raw": "$GAGSV,2,2,05,30,44,195,16,7*4F", "type": "$GAGSV", "timestamp": "2025-12-21T09:20:15.066800"}, "gps_position": {"latitude": 35.96839593333333, "longitude": -115.08140081666667, "altitude": 2717.847856}}
{"timestamp": "2025-12-21T09:20:15.066857", "type": "gps", "data": {"raw": "$GAGSV,1,1,03,02,68,085,15,07,34,312,18,08,76,032,19,1*4A", "type": "$GAGSV", "timestamp": "2025-12-21T09:20:15.066854"}, "gps_position": {"latitude": 35.96839593333333, "longitude": -115.08140081666667, "altitude": 2717.847856}}
{"timestamp": "2025-12-21T09:20:15.066907", "type": "gps", "data": {"raw": "$GBGSV,1,1,02,45,80,316,16,42,16,320,17,1*78", "type": "$GBGSV", "timestamp": "2025-12-21T09:20:15.066903"}, "gps_position": {"latitude": 35.96839593333333, "longitude": -115.08140081666667, "altitude": 2717.847856}}
{"timestamp": "2025-12-21T09:20:15.066951", "type": "gps", "data": {"raw": "$GBGSV,2,1,06,21,64,299,25,22,54,163,27,26,27,244,11,36,39,047,24,3*7C", "type": "$GBGSV", "timestamp": "2025-12-21T09:20:15.066948"}, "gps_position": {"latitude": 35.96839593333333, "longitude": -115.08140081666667, "altitude": 2717.847856}}
{"timestamp": "2025-12-21T09:20:15.066994", "type": "gps", "data": {"raw": "$GBGSV,2,2,06,42,16,320,23,45,80,316,22,3*7E", "type": "$GBGSV", "timestamp": "2025-12-21T09:20:15.066991"}, "gps_position": {"latitude": 35.96839593333333, "longitude": -115.08140081666667, "altitude": 2717.847856}}
{"timestamp": "2025-12-21T09:20:15.067035", "type": "gps", "data": {"raw": "$GBGSV,1,1,02,21,64,299,17,22,54,163,17,5*76", "type": "$GBGSV", "timestamp": "2025-12-21T09:20:15.067032"}, "gps_position": {"latitude": 35.96839593333333, "longitude": -115.08140081666667, "altitude": 2717.847856}}
{"timestamp": "2025-12-21T09:20:15.067084", "type": "gps", "data": {"raw": "$GNGSA,A,3,07,09,16,27,30,,,,,,,,1.1,0.8,0.7,1*31", "type": "$GNGSA", "timestamp": "2025-12-21T09:20:15.067081"}, "gps_position": {"latitude": 35.96839593333333, "longitude": -115.08140081666667, "altitude": 2717.847856}}
{"timestamp": "2025-12-21T09:20:15.067128", "type": "gps", "data": {"raw": "$PSSGR,GSA,A,3,30,,,,,,,,,,,,1.1,0.8,0.7,1,8*49", "type": "$PSSGR", "timestamp": "2025-12-21T09:20:15.067125"}, "gps_position": {"latitude": 35.96839593333333, "longitude": -115.08140081666667, "altitude": 2717.847856}}
{"timestamp": "2025-12-21T09:20:15.067184", "type": "gps", "data": {"raw": "$GNGSA,A,3,66,76,,,,,,,,,,,1.1,0.8,0.7,2*3C", "type": "$GNGSA", "timestamp": "2025-12-21T09:20:15.067181"}, "gps_position": {"latitude": 35.96839593333333, "longitude": -115.08140081666667, "altitude": 2717.847856}}
{"timestamp": "2025-12-21T09:20:15.067230", "type": "gps", "data": {"raw": "$GNGSA,A,3,02,03,07,08,30,,,,,,,,1.1,0.8,0.7,3*31", "type": "$GNGSA", "timestamp": "2025-12-21T09:20:15.067227"}, "gps_position": {"latitude": 35.96839593333333, "longitude": -115.08140081666667, "altitude": 2717.847856}}
{"timestamp": "2025-12-21T09:20:15.067279", "type": "gps", "data": {"raw": "$PSSGR,GSA,A,3,308,,,,,,,,,,,,1.1,0.8,0.7,3,1*7A", "type": "$PSSGR", "timestamp": "2025-12-21T09:20:15.067275"}, "gps_position": {"latitude": 35.96839593333333, "longitude": -115.08140081666667, "altitude": 2717.847856}}
{"timestamp": "2025-12-21T09:20:15.067327", "type": "gps", "data": {"raw": "$GNGSA,A,3,21,22,36,42,45,,,,,,,,1.1,0.8,0.7,4*3A", "type": "$GNGSA", "timestamp": "2025-12-21T09:20:15.067324"}, "gps_position": {"latitude": 35.96839593333333, "longitude": -115.08140081666667, "altitude": 2717.847856}}
{"timestamp": "2025-12-21T09:20:15.067374", "type": "gps", "data": {"raw": "$PSSGR,GSA,A,3,222,,,,,,,,,,,,1.1,0.8,0.7,4,5*70", "type": "$PSSGR", "timestamp": "2025-12-21T09:20:15.067370"}, "gps_position": {"latitude": 35.96839593333333, "longitude": -115.08140081666667, "altitude": 2717.847856}}
{"timestamp": "2025-12-21T09:20:15.067420", "type": "gps", "data": {"raw": "$GNVTG,,T,,M,0.0,N,0.0,K,A*3D", "type": "$GNVTG", "timestamp": "2025-12-21T09:20:15.067417"}, "gps_position": {"latitude": 35.96839593333333, "longitude": -115.08140081666667, "altitude": 2717.847856}}
{"timestamp": "2025-12-21T09:20:15.067472", "type": "gps", "data": {"raw": "$GNDTM,W84,,0000.000000,N,00000.000000,E,0.000,W84*41", "type": "$GNDTM", "timestamp": "2025-12-21T09:20:15.067468"}, "gps_position": {"latitude": 35.96839593333333, "longitude": -115.08140081666667, "altitude": 2717.847856}}
{"timestamp": "2025-12-21T09:20:15.067535", "type": "gps", "data": {"raw": "$GNRMC,172015.00,A,3558.103756,N,11504.884048,W,0.0,,211225,10.9,E,A,V*56", "type": "$GNRMC", "timestamp": "2025-12-21T09:20:15.067514", "time": "172015.00", "status": "A", "latitude": "35.96839593333333", "longitude": "-115.0814008", "speed": "0.0", "track": ""}, "gps_position": {"latitude": 35.96839593333333, "longitude": -115.0814008, "altitude": 2717.847856}}
{"timestamp": "2025-12-21T09:20:15.067591", "type": "gps", "data": {"raw": "$GNGNS,172015.00,3558.103756,N,11504.884048,W,AAAANN,17,0.8,828.4,-28.2,,,V*19", "type": "$GNGNS", "timestamp": "2025-12-21T09:20:15.067587"}, "gps_position": {"latitude": 35.96839593333333, "longitude": -115.0814008, "altitude": 2717.847856}}
{"timestamp": "2025-12-21T09:20:15.067649", "type": "gps", "data": {"raw": "$GNGGA,172015.00,3558.103756,N,11504.884048,W,1,12,0.8,828.4,M,-28.2,M,,*4C", "type": "$GNGGA", "timestamp": "2025-12-21T09:20:15.067634", "time": "172015.00", "latitude": "35.96839593333333", "longitude": "-115.0814008", "fix_quality": "1", "satellites": "12", "altitude": "828.4"}, "gps_position": {"latitude": 35.96839593333333, "longitude": -115.0814008, "altitude": 2717.847856}}
{"timestamp": "2025-12-21T09:20:15.067704", "type": "gps", "data": {"raw": "$PSMSG,magcal=PASS,bluesky=0*00", "type": "$PSMSG", "timestamp": "2025-12-21T09:20:15.067701"}, "gps_position": {"latitude": 35.96839593333333, "longitude": -115.0814008, "altitude": 2717.847856}}
{"timestamp": "2025-12-21T09:20:16.044043", "type": "gps", "data": {"raw": "$GPGSV,2,1,05,07,47,289,26,09,77,343,22,16,35,047,22,27,26,094,21,1*61", "type": "$GPGSV", "timestamp": "2025-12-21T09:20:16.044025"}, "gps_position": {"latitude": 35.96839593333333, "longitude": -115.0814008, "altitude": 2717.847856}}
{"timestamp": "2025-12-21T09:20:16.044267", "type": "gps", "data": {"raw": "$GPGSV,2,2,05,30,22,272,23,1*54", "type": "$GPGSV", "timestamp": "2025-12-21T09:20:16.044259"}, "gps_position": {"latitude": 35.96839593333333, "longitude": -115.0814008, "altitude": 2717.847856}}
{"timestamp": "2025-12-21T09:20:16.044357", "type": "gps", "data": {"raw": "$GPGSV,1,1,02,04,60,108,18,30,22,272,21,8*6A", "type": "$GPGSV", "timestamp": "2025-12-21T09:20:16.044353"}, "gps_position": {"latitude": 35.96839593333333, "longitude": -115.0814008, "altitude": 2717.847856}}
{"timestamp": "2025-12-21T09:20:16.044417", "type": "gps", "data": {"raw": "$GLGSV,1,1,03,02,78,124,20,12,55,021,23,01,26,146,19,1*4C", "type": "$GLGSV", "timestamp": "2025-12-21T09:20:16.044413"}, "gps_position": {"latitude": 35.96839593333333, "longitude": -115.0814008, "altitude": 2717.847856}}
{"timestamp": "2025-12-21T09:20:16.044477", "type": "gps", "data": {"raw": "$GAGSV,2,1,05,02,68,085,26,03,34,112,21,07,34,312,29,08,76,032,23,7*77", "type": "$GAGSV", "timestamp": "2025-12-21T09:20:16.044473"}, "gps_position": {"latitude": 35.96839593333333, "longitude": -115.0814008, "altitude": 2717.847856}}
{"timestamp": "2025-12-21T09:20:16.044532", "type": "gps", "data": {"raw": "$GAGSV,2,2,05,30,44,195,16,7*4F", "type": "$GAGSV", "timestamp": "2025-12-21T09:20:16.044529"}, "gps_position": {"latitude": 35.96839593333333, "longitude": -115.0814008, "altitude": 2717.847856}}
{"timestamp": "2025-12-21T09:20:16.044742", "type": "gps", "data": {"raw": "$GAGSV,1,1,03,02,68,085,15,07,34,312,20,08,76,032,19,1*41", "type": "$GAGSV", "timestamp": "2025-12-21T09:20:16.044703"}, "gps_position": {"latitude": 35.96839593333333, "longitude": -115.0814008, "altitude": 2717.847856}}
{"timestamp": "2025-12-21T09:20:16.044833", "type": "gps", "data": {"raw": "$GBGSV,1,1,02,45,80,316,16,42,16,320,17,1*78", "type": "$GBGSV", "timestamp": "2025-12-21T09:20:16.044829"}, "gps_position": {"latitude": 35.96839593333333, "longitude": -115.0814008, "altitude": 2717.847856}}
{"timestamp": "2025-12-21T09:20:16.044892", "type": "gps", "data": {"raw": "$GBGSV,2,1,06,21,64,299,24,22,54,163,27,26,27,244,11,36,39,047,24,3*7D", "type": "$GBGSV", "timestamp": "2025-12-21T09:20:16.044889"}, "gps_position": {"latitude": 35.96839593333333, "longitude": -115.0814008, "altitude": 2717.847856}}
{"timestamp": "2025-12-21T09:20:16.044939", "type": "gps", "data": {"raw": "$GBGSV,2,2,06,42,16,320,25,45,80,316,23,3*79", "type": "$GBGSV", "timestamp": "2025-12-21T09:20:16.044935"}, "gps_position": {"latitude": 35.96839593333333, "longitude": -115.0814008, "altitude": 2717.847856}}
{"timestamp": "2025-12-21T09:20:16.044982", "type": "gps", "data": {"raw": "$GBGSV,1,1,02,21,64,299,18,22,54,163,17,5*79", "type": "$GBGSV", "timestamp": "2025-12-21T09:20:16.044979"}, "gps_position": {"latitude": 35.96839593333333, "longitude": -115.0814008, "altitude": 2717.847856}}
{"timestamp": "2025-12-21T09:20:16.045025", "type": "gps", "data": {"raw": "$GNGSA,A,3,07,09,16,27,30,,,,,,,,1.1,0.8,0.7,1*31", "type": "$GNGSA", "timestamp": "2025-12-21T09:20:16.045022"}, "gps_position": {"latitude": 35.96839593333333, "longitude": -115.0814008, "altitude": 2717.847856}}
{"timestamp": "2025-12-21T09:20:16.045068", "type": "gps", "data": {"raw": "$PSSGR,GSA,A,3,30,,,,,,,,,,,,1.1,0.8,0.7,1,8*49", "type": "$PSSGR", "timestamp": "2025-12-21T09:20:16.045065"}, "gps_position": {"latitude": 35.96839593333333, "longitude": -115.0814008, "altitude": 2717.847856}}
{"timestamp": "2025-12-21T09:20:16.045110", "type": "gps", "data": {"raw": "$GNGSA,A,3,76,,,,,,,,,,,,1.1,0.8,0.7,2*3C", "type": "$GNGSA", "timestamp": "2025-12-21T09:20:16.045107"}, "gps_position": {"latitude": 35.96839593333333, "longitude": -115.0814008, "altitude": 2717.847856}}
{"timestamp": "2025-12-21T09:20:16.045152", "type": "gps", "data": {"raw": "$GNGSA,A,3,02,03,07,08,30,,,,,,,,1.1,0.8,0.7,3*31", "type": "$GNGSA", "timestamp": "2025-12-21T09:20:16.045149"}, "gps_position": {"latitude": 35.96839593333333, "longitude": -115.0814008, "altitude": 2717.847856}}
{"timestamp": "2025-12-21T09:20:16.045195", "type": "gps", "data": {"raw": "$PSSGR,GSA,A,3,307,308,,,,,,,,,,,1.1,0.8,0.7,3,1*4E", "type": "$PSSGR", "timestamp": "2025-12-21T09:20:16.045192"}, "gps_position": {"latitude": 35.96839593333333, "longitude": -115.0814008, "altitude": 2717.847856}}
{"timestamp": "2025-12-21T09:20:16.046560", "type": "gps", "data": {"raw": "$GNGSA,A,3,21,22,36,42,45,,,,,,,,1.1,0.8,0.7,4*3A", "type": "$GNGSA", "timestamp": "2025-12-21T09:20:16.046554"}, "gps_position": {"latitude": 35.96839593333333, "longitude": -115.0814008, "altitude": 2717.847856}}
{"timestamp": "2025-12-21T09:20:16.046705", "type": "gps", "data": {"raw": "$PSSGR,GSA,A,3,221,222,,,,,,,,,,,1.1,0.8,0.7,4,5*41", "type": "$PSSGR", "timestamp": "2025-12-21T09:20:16.046699"}, "gps_position": {"latitude": 35.96839593333333, "longitude": -115.0814008, "altitude": 2717.847856}}
{"timestamp": "2025-12-21T09:20:16.047883", "type": "gps", "data": {"raw": "$GNVTG,,T,,M,0.0,N,0.0,K,A*3D", "type": "$GNVTG", "timestamp": "2025-12-21T09:20:16.047878"}, "gps_position": {"latitude": 35.96839593333333, "longitude": -115.0814008, "altitude": 2717.847856}}
{"timestamp": "2025-12-21T09:20:16.048023", "type": "gps", "data": {"raw": "$GNDTM,W84,,0000.000000,N,00000.000000,E,0.000,W84*41", "type": "$GNDTM", "timestamp": "2025-12-21T09:20:16.048019"}, "gps_position": {"latitude": 35.96839593333333, "longitude": -115.0814008, "altitude": 2717.847856}}
{"timestamp": "2025-12-21T09:20:16.048104", "type": "gps", "data": {"raw": "$GNRMC,172016.00,A,3558.103757,N,11504.884047,W,0.0,,211225,10.9,E,A,V*5B", "type": "$GNRMC", "timestamp": "2025-12-21T09:20:16.048083", "time": "172016.00", "status": "A", "latitude": "35.96839595", "longitude": "-115.08140078333334", "speed": "0.0", "track": ""}, "gps_position": {"latitude": 35.96839595, "longitude": -115.08140078333334, "altitude": 2717.847856}}
{"timestamp": "2025-12-21T09:20:16.052463", "type": "gps", "data": {"raw": "$GNGNS,172016.00,3558.103757,N,11504.884047,W,AAAANN,16,0.8,828.3,-28.2,,,V*12", "type": "$GNGNS", "timestamp": "2025-12-21T09:20:16.052449"}, "gps_position": {"latitude": 35.96839595, "longitude": -115.08140078333334, "altitude": 2717.847856}}
{"timestamp": "2025-12-21T09:20:16.059261", "type": "gps", "data": {"raw": "$GNGGA,172016.00,3558.103757,N,11504.884047,W,1,12,0.8,828.3,M,-28.2,M,,*46", "type": "$GNGGA", "timestamp": "2025-12-21T09:20:16.059227", "time": "172016.00", "latitude": "35.96839595", "longitude": "-115.08140078333334", "fix_quality": "1", "satellites": "12", "altitude": "828.3"}, "gps_position": {"latitude": 35.96839595, "longitude": -115.08140078333334, "altitude": 2717.5197719999996}}
{"timestamp": "2025-12-21T09:20:16.059411", "type": "gps", "data": {"raw": "$PSMSG,magcal=PASS,bluesky=0*00", "type": "$PSMSG", "timestamp": "2025-12-21T09:20:16.059406"}, "gps_position": {"latitude": 35.96839595, "longitude": -115.08140078333334, "altitude": 2717.5197719999996}}
{"timestamp": "2025-12-21T09:20:17.037655", "type": "gps", "data": {"raw": "$GPGSV,2,1,05,07,47,289,26,09,77,343,22,16,35,047,22,27,26,094,21,1*61", "type": "$GPGSV", "timestamp": "2025-12-21T09:20:17.037628"}, "gps_position": {"latitude": 35.96839595, "longitude": -115.08140078333334, "altitude": 2717.5197719999996}}
{"timestamp": "2025-12-21T09:20:17.037975", "type": "gps", "data": {"raw": "$GPGSV,2,2,05,30,22,272,23,1*54", "type": "$GPGSV", "timestamp": "2025-12-21T09:20:17.037963"}, "gps_position": {"latitude": 35.96839595, "longitude": -115.08140078333334, "altitude": 2717.5197719999996}}
{"timestamp": "2025-12-21T09:20:17.038460", "type": "gps", "data": {"raw": "$GPGSV,1,1,02,04,60,108,16,30,22,272,22,8*67", "type": "$GPGSV", "timestamp": "2025-12-21T09:20:17.038445"}, "gps_position": {"latitude": 35.96839595, "longitude": -115.08140078333334, "altitude": 2717.5197719999996}}
{"timestamp": "2025-12-21T09:20:17.038602", "type": "gps", "data": {"raw": "$GLGSV,1,1,03,02,78,124,20,12,55,021,23,01,26,146,19,1*4C", "type": "$GLGSV", "timestamp": "2025-12-21T09:20:17.038596"}, "gps_position": {"latitude": 35.96839595, "longitude": -115.08140078333334, "altitude": 2717.5197719999996}}
{"timestamp": "2025-12-21T09:20:17.038697", "type": "gps", "data": {"raw": "$GAGSV,2,1,05,02,68,085,25,03,34,112,21,07,34,312,29,08,76,032,21,7*76", "type": "$GAGSV", "timestamp": "2025-12-21T09:20:17.038691"}, "gps_position": {"latitude": 35.96839595, "longitude": -115.08140078333334, "altitude": 2717.5197719999996}}
{"timestamp": "2025-12-21T09:20:17.038771", "type": "gps", "data": {"raw": "$GAGSV,2,2,05,30,44,195,16,7*4F", "type": "$GAGSV", "timestamp": "2025-12-21T09:20:17.038767"}, "gps_position": {"latitude": 35.96839595, "longitude": -115.08140078333334, "altitude": 2717.5197719999996}}
{"timestamp": "2025-12-21T09:20:17.038833", "type": "gps", "data": {"raw": "$GAGSV,1,1,03,02,68,085,15,07,34,312,20,08,76,032,20,1*4B", "type": "$GAGSV", "timestamp": "2025-12-21T09:20:17.038830"}, "gps_position": {"latitude": 35.96839595, "longitude": -115.08140078333334, "altitude": 2717.5197719999996}}
{"timestamp": "2025-12-21T09:20:17.038899", "type": "gps", "data": {"raw": "$GBGSV,1,1,02,45,80,316,16,42,16,320,17,1*78", "type": "$GBGSV", "timestamp": "2025-12-21T09:20:17.038894"}, "gps_position": {"latitude": 35.96839595, "longitude": -115.08140078333334, "altitude": 2717.5197719999996}}
{"timestamp": "2025-12-21T09:20:17.038963", "type": "gps", "data": {"raw": "$GBGSV,2,1,06,21,64,299,25,22,54,163,27,26,27,244,11,36,39,047,22,3*7A", "type": "$GBGSV", "timestamp": "2025-12-21T09:20:17.038959"}, "gps_position": {"latitude": 35.96839595, "longitude": -115.08140078333334, "altitude": 2717.5197719999996}}
{"timestamp": "2025-12-21T09:20:17.039033", "type": "gps", "data": {"raw": "$GBGSV,2,2,06,42,16,320,24,45,80,316,24,3*7F", "type": "$GBGSV", "timestamp": "2025-12-21T09:20:17.039029"}, "gps_position": {"latitude": 35.96839595, "longitude": -115.08140078333334, "altitude": 2717.5197719999996}}
{"timestamp": "2025-12-21T09:20:17.039087", "type": "gps", "data": {"raw": "$GBGSV,1,1,02,21,64,299,18,22,54,163,18,5*76", "type": "$GBGSV", "timestamp": "2025-12-21T09:20:17.039084"}, "gps_position": {"latitude": 35.96839595, "longitude": -115.08140078333334, "altitude": 2717.5197719999996}}
{"timestamp": "2025-12-21T09:20:17.039142", "type": "gps", "data": {"raw": "$GNGSA,A,3,07,09,16,27,30,,,,,,,,1.1,0.9,0.7,1*30", "type": "$GNGSA", "timestamp": "2025-12-21T09:20:17.039139"}, "gps_position": {"latitude": 35.96839595, "longitude": -115.08140078333334, "altitude": 2717.5197719999996}}
{"timestamp": "2025-12-21T09:20:17.039191", "type": "gps", "data": {"raw": "$PSSGR,GSA,A,3,30,,,,,,,,,,,,1.1,0.9,0.7,1,8*48", "type": "$PSSGR", "timestamp": "2025-12-21T09:20:17.039188"}, "gps_position": {"latitude": 35.96839595, "longitude": -115.08140078333334, "altitude": 2717.5197719999996}}
{"timestamp": "2025-12-21T09:20:17.039236", "type": "gps", "data": {"raw": "$GNGSA,A,3,76,,,,,,,,,,,,1.1,0.9,0.7,2*3D", "type": "$GNGSA", "timestamp": "2025-12-21T09:20:17.039233"}, "gps_position": {"latitude": 35.96839595, "longitude": -115.08140078333334, "altitude": 2717.5197719999996}}
{"timestamp": "2025-12-21T09:20:17.039282", "type": "gps", "data": {"raw": "$GNGSA,A,3,02,03,07,08,,,,,,,,,1.1,0.9,0.7,3*33", "type": "$GNGSA", "timestamp": "2025-12-21T09:20:17.039279"}, "gps_position": {"latitude": 35.96839595, "longitude": -115.08140078333334, "altitude": 2717.5197719999996}}
{"timestamp": "2025-12-21T09:20:17.039326", "type": "gps", "data": {"raw": "$PSSGR,GSA,A,3,307,308,,,,,,,,,,,1.1,0.9,0.7,3,1*4F", "type": "$PSSGR", "timestamp": "2025-12-21T09:20:17.039323"}, "gps_position": {"latitude": 35.96839595, "longitude": -115.08140078333334, "altitude": 2717.5197719999996}}
{"timestamp": "2025-12-21T09:20:17.039372", "type": "gps", "data": {"raw": "$GNGSA,A,3,21,22,36,42,45,,,,,,,,1.1,0.9,0.7,4*3B", "type": "$GNGSA", "timestamp": "2025-12-21T09:20:17.039369"}, "gps_position": {"latitude": 35.96839595, "longitude": -115.08140078333334, "altitude": 2717.5197719999996}}
{"timestamp": "2025-12-21T09:20:17.039417", "type": "gps", "data": {"raw": "$PSSGR,GSA,A,3,221,222,,,,,,,,,,,1.1,0.9,0.7,4,5*40", "type": "$PSSGR", "timestamp": "2025-12-21T09:20:17.039414"}, "gps_position": {"latitude": 35.96839595, "longitude": -115.08140078333334, "altitude": 2717.5197719999996}}
{"timestamp": "2025-12-21T09:20:17.039462", "type": "gps", "data": {"raw": "$GNVTG,,T,,M,0.0,N,0.0,K,A*3D", "type": "$GNVTG", "timestamp": "2025-12-21T09:20:17.039459"}, "gps_position": {"latitude": 35.96839595, "longitude": -115.08140078333334, "altitude": 2717.5197719999996}}
{"timestamp": "2025-12-21T09:20:17.039507", "type": "gps", "data": {"raw": "$GNDTM,W84,,0000.000000,N,00000.000000,E,0.000,W84*41", "type": "$GNDTM", "timestamp": "2025-12-21T09:20:17.039504"}, "gps_position": {"latitude": 35.96839595, "longitude": -115.08140078333334, "altitude": 2717.5197719999996}}
{"timestamp": "2025-12-21T09:20:17.039577", "type": "gps", "data": {"raw": "$GNRMC,172017.00,A,3558.103757,N,11504.884047,W,0.0,,211225,10.9,E,A,V*5A", "type": "$GNRMC", "timestamp": "2025-12-21T09:20:17.039550", "time": "172017.00", "status": "A", "latitude": "35.96839595", "longitude": "-115.08140078333334", "speed": "0.0", "track": ""}, "gps_position": {"latitude": 35.96839595, "longitude": -115.08140078333334, "altitude": 2717.5197719999996}}
{"timestamp": "2025-12-21T09:20:17.039633", "type": "gps", "data": {"raw": "$GNGNS,172017.00,3558.103757,N,11504.884047,W,AAAANN,15,0.9,828.3,-28.2,,,V*11", "type": "$GNGNS", "timestamp": "2025-12-21T09:20:17.039629"}, "gps_position": {"latitude": 35.96839595, "longitude": -115.08140078333334, "altitude": 2717.5197719999996}}
{"timestamp": "2025-12-21T09:20:17.041589", "type": "gps", "data": {"raw": "$GNGGA,172017.00,3558.103757,N,11504.884047,W,1,12,0.9,828.3,M,-28.2,M,,*46", "type": "$GNGGA", "timestamp": "2025-12-21T09:20:17.041558", "time": "172017.00", "latitude": "35.96839595", "longitude": "-115.08140078333334", "fix_quality": "1", "satellites": "12", "altitude": "828.3"}, "gps_position": {"latitude": 35.96839595, "longitude": -115.08140078333334, "altitude": 2717.5197719999996}}
{"timestamp": "2025-12-21T09:20:17.041707", "type": "gps", "data": {"raw": "$PSMSG,magcal=PASS,bluesky=0*00", "type": "$PSMSG", "timestamp": "2025-12-21T09:20:17.041702"}, "gps_position": {"latitude": 35.96839595, "longitude": -115.08140078333334, "altitude": 2717.5197719999996}}
{"timestamp": "2025-12-21T09:20:18.067528", "type": "gps", "data": {"raw": "$GPGSV,2,1,05,07,47,289,25,09,77,343,22,16,35,047,21,27,26,094,22,1*62", "type": "$GPGSV", "timestamp": "2025-12-21T09:20:18.067443"}, "gps_position": {"latitude": 35.96839595, "longitude": -115.08140078333334, "altitude": 2717.5197719999996}}
{"timestamp": "2025-12-21T09:20:18.067954", "type": "gps", "data": {"raw": "$GPGSV,2,2,05,30,22,272,23,1*54", "type": "$GPGSV", "timestamp": "2025-12-21T09:20:18.067938"}, "gps_position": {"latitude": 35.96839595, "longitude": -115.08140078333334, "altitude": 2717.5197719999996}}
{"timestamp": "2025-12-21T09:20:18.068127", "type": "gps", "data": {"raw": "$GPGSV,1,1,02,04,60,108,16,30,22,272,22,8*67", "type": "$GPGSV", "timestamp": "2025-12-21T09:20:18.068119"}, "gps_position": {"latitude": 35.96839595, "longitude": -115.08140078333334, "altitude": 2717.5197719999996}}
{"timestamp": "2025-12-21T09:20:18.068326", "type": "gps", "data": {"raw": "$GLGSV,1,1,03,02,78,124,20,12,55,021,24,01,26,146,19,1*4B", "type": "$GLGSV", "timestamp": "2025-12-21T09:20:18.068317"}, "gps_position": {"latitude": 35.96839595, "longitude": -115.08140078333334, "altitude": 2717.5197719999996}}
{"timestamp": "2025-12-21T09:20:18.068439", "type": "gps", "data": {"raw": "$GAGSV,2,1,05,02,68,085,26,03,34,112,19,07,34,312,29,08,76,032,23,7*7C", "type": "$GAGSV", "timestamp": "2025-12-21T09:20:18.068434"}, "gps_position": {"latitude": 35.96839595, "longitude": -115.08140078333334, "altitude": 2717.5197719999996}}
{"timestamp": "2025-12-21T09:20:18.068527", "type": "gps", "data": {"raw": "$GAGSV,2,2,05,30,44,195,16,7*4F", "type": "$GAGSV", "timestamp": "2025-12-21T09:20:18.068522"}, "gps_position": {"latitude": 35.96839595, "longitude": -115.08140078333334, "altitude": 2717.5197719999996}}
{"timestamp": "2025-12-21T09:20:18.068621", "type": "gps", "data": {"raw": "$GAGSV,1,1,03,02,68,085,15,07,34,312,20,08,76,032,20,1*4B", "type": "$GAGSV", "timestamp": "2025-12-21T09:20:18.068613"}, "gps_position": {"latitude": 35.96839595, "longitude": -115.08140078333334, "altitude": 2717.5197719999996}}
