{"timestamp": "2025-12-21T08:35:54.036144", "type": "gps", "data": {"raw": "$GPGSV,2,1,07,03,37,184,25,04,71,060,27,07,36,268,29,08,11,144,19,1*68", "type": "$GPGSV", "timestamp": "2025-12-21T08:35:54.036120"}, "gps_position": null}
{"timestamp": "2025-12-21T08:35:54.036393", "type": "gps", "data": {"raw": "$GPGSV,2,2,07,09,57,325,29,16,50,064,15,27,16,114,18,1*5C", "type": "$GPGSV", "timestamp": "2025-12-21T08:35:54.036386"}, "gps_position": null}
{"timestamp": "2025-12-21T08:35:54.036448", "type": "gps", "data": {"raw": "$GPGSV,1,1,03,03,37,184,21,04,71,060,14,09,57,325,20,8*5B", "type": "$GPGSV", "timestamp": "2025-12-21T08:35:54.036444"}, "gps_position": null}
{"timestamp": "2025-12-21T08:35:54.036488", "type": "gps", "data": {"raw": "$GLGSV,1,1,03,02,71,006,17,12,80,008,29,01,46,127,24,1*46", "type": "$GLGSV", "timestamp": "2025-12-21T08:35:54.036484"}, "gps_position": null}
{"timestamp": "2025-12-21T08:35:54.036523", "type": "gps", "data": {"raw": "$GAGSV,3,1,09,02,63,128,24,03,44,093,18,07,21,303,17,08,67,347,23,7*78", "type": "$GAGSV", "timestamp": "2025-12-21T08:35:54.036519"}, "gps_position": null}
{"timestamp": "2025-12-21T08:35:54.036556", "type": "gps", "data": {"raw": "$GAGSV,3,2,09,13,14,254,15,16,12,039,15,25,33,050,22,26,10,304,15,7*75", "type": "$GAGSV", "timestamp": "2025-12-21T08:35:54.036553"}, "gps_position": null}
{"timestamp": "2025-12-21T08:35:54.036589", "type": "gps", "data": {"raw": "$GAGSV,3,3,09,30,26,191,20,7*46", "type": "$GAGSV", "timestamp": "2025-12-21T08:35:54.036586"}, "gps_position": null}
{"timestamp": "2025-12-21T08:35:54.036633", "type": "gps", "data": {"raw": "$GAGSV,1,1,04,02,63,128,19,03,44,093,15,08,67,347,17,13,14,254,15,1*77", "type": "$GAGSV", "timestamp": "2025-12-21T08:35:54.036627"}, "gps_position": null}
{"timestamp": "2025-12-21T08:35:54.036673", "type": "gps", "data": {"raw": "$GBGSV,1,1,01,22,75,150,19,1*49", "type": "$GBGSV", "timestamp": "2025-12-21T08:35:54.036669"}, "gps_position": null}
{"timestamp": "2025-12-21T08:35:54.036706", "type": "gps", "data": {"raw": "$GBGSV,2,1,06,19,21,141,21,21,48,316,22,22,75,150,26,26,13,231,13,3*70", "type": "$GBGSV", "timestamp": "2025-12-21T08:35:54.036703"}, "gps_position": null}
{"timestamp": "2025-12-21T08:35:54.036737", "type": "gps", "data": {"raw": "$GBGSV,2,2,06,36,56,044,28,45,71,237,17,3*79", "type": "$GBGSV", "timestamp": "2025-12-21T08:35:54.036733"}, "gps_position": null}
{"timestamp": "2025-12-21T08:35:54.036768", "type": "gps", "data": {"raw": "$GBGSV,1,1,04,19,21,141,17,21,48,316,23,22,75,150,17,36,56,044,21,5*70", "type": "$GBGSV", "timestamp": "2025-12-21T08:35:54.036764"}, "gps_position": null}
{"timestamp": "2025-12-21T08:35:54.036799", "type": "gps", "data": {"raw": "$GNGSA,A,3,03,04,07,09,27,,,,,,,,1.0,0.7,0.7,1*3C", "type": "$GNGSA", "timestamp": "2025-12-21T08:35:54.036796"}, "gps_position": null}
{"timestamp": "2025-12-21T08:35:54.036829", "type": "gps", "data": {"raw": "$PSSGR,GSA,A,3,03,09,,,,,,,,,,,1.0,0.7,0.7,1,8*4E", "type": "$PSSGR", "timestamp": "2025-12-21T08:35:54.036826"}, "gps_position": null}
{"timestamp": "2025-12-21T08:35:54.036858", "type": "gps", "data": {"raw": "$GNGSA,A,3,65,76,,,,,,,,,,,1.0,0.7,0.7,2*31", "type": "$GNGSA", "timestamp": "2025-12-21T08:35:54.036855"}, "gps_position": null}
{"timestamp": "2025-12-21T08:35:54.036887", "type": "gps", "data": {"raw": "$GNGSA,A,3,02,03,07,08,25,26,30,,,,,,1.0,0.7,0.7,3*3C", "type": "$GNGSA", "timestamp": "2025-12-21T08:35:54.036884"}, "gps_position": null}
{"timestamp": "2025-12-21T08:35:54.036916", "type": "gps", "data": {"raw": "$PSSGR,GSA,A,3,302,,,,,,,,,,,,1.0,0.7,0.7,3,1*7E", "type": "$PSSGR", "timestamp": "2025-12-21T08:35:54.036913"}, "gps_position": null}
{"timestamp": "2025-12-21T08:35:54.036945", "type": "gps", "data": {"raw": "$GNGSA,A,3,19,21,22,36,,,,,,,,,1.0,0.7,0.7,4*3B", "type": "$GNGSA", "timestamp": "2025-12-21T08:35:54.036942"}, "gps_position": null}
{"timestamp": "2025-12-21T08:35:54.036973", "type": "gps", "data": {"raw": "$PSSGR,GSA,A,3,221,236,,,,,,,,,,,1.0,0.7,0.7,4,5*4A", "type": "$PSSGR", "timestamp": "2025-12-21T08:35:54.036970"}, "gps_position": null}
{"timestamp": "2025-12-21T08:35:54.037005", "type": "gps", "data": {"raw": "$GNVTG,,T,,M,0.0,N,0.0,K,A*3D", "type": "$GNVTG", "timestamp": "2025-12-21T08:35:54.037002"}, "gps_position": null}
{"timestamp": "2025-12-21T08:35:54.037035", "type": "gps", "data": {"raw": "$GNDTM,W84,,0000.000000,N,00000.000000,E,0.000,W84*41", "type": "$GNDTM", "timestamp": "2025-12-21T08:35:54.037031"}, "gps_position": null}
{"timestamp": "2025-12-21T08:35:54.037090", "type": "gps", "data": {"raw": "$GNRMC,163554.00,A,3558.104007,N,11504.884094,W,0.0,,211225,10.9,E,A,V*53", "type": "$GNRMC", "timestamp": "2025-12-21T08:35:54.037061", "time": "163554.00", "status": "A", "latitude": "35.968400116666665", "longitude": "-115.08140156666667", "speed": "0.0", "track": ""}, "gps_position": {"latitude": 35.968400116666665, "longitude": -115.08140156666667, "altitude": null}}
{"timestamp": "2025-12-21T08:35:54.037137", "type": "gps", "data": {"raw": "$GNGNS,163554.00,3558.104007,N,11504.884094,W,AAAANN,18,0.7,828.6,-28.2,,,V*1E", "type": "$GNGNS", "timestamp": "2025-12-21T08:35:54.037134"}, "gps_position": {"latitude": 35.968400116666665, "longitude": -115.08140156666667, "altitude": null}}
{"timestamp": "2025-12-21T08:35:54.037187", "type": "gps", "data": {"raw": "$GNGGA,163554.00,3558.104007,N,11504.884094,W,1,12,0.7,828.6,M,-28.2,M,,*44", "type": "$GNGGA", "timestamp": "2025-12-21T08:35:54.037171", "time": "163554.00", "latitude": "35.968400116666665", "longitude": "-115.08140156666667", "fix_quality": "1", "satellites": "12", "altitude": "828.6"}, "gps_position": {"latitude": 35.968400116666665, "longitude": -115.08140156666667, "altitude": 2718.504024}}
{"timestamp": "2025-12-21T08:35:54.037228", "type": "gps", "data": {"raw": "$PSMSG,magcal=PASS,bluesky=0*00", "type": "$PSMSG", "timestamp": "2025-12-21T08:35:54.037225"}, "gps_position": {"latitude": 35.968400116666665, "longitude": -115.08140156666667, "altitude": 2718.504024}}
{"timestamp": "2025-12-21T08:35:55.045022", "type": "gps", "data": {"raw": "$GPGSV,2,1,07,03,37,184,24,04,71,060,29,07,36,268,34,08,11,144,18,1*6A", "type": "$GPGSV", "timestamp": "2025-12-21T08:35:55.045005"}, "gps_position": {"latitude": 35.968400116666665, "longitude": -115.08140156666667, "altitude": 2718.504024}}
{"timestamp": "2025-12-21T08:35:55.045440", "type": "gps", "data": {"raw": "$GPGSV,2,2,07,09,57,325,29,16,50,064,15,27,16,114,18,1*5C", "type": "$GPGSV", "timestamp": "2025-12-21T08:35:55.045430"}, "gps_position": {"latitude": 35.968400116666665, "longitude": -115.08140156666667, "altitude": 2718.504024}}
{"timestamp": "2025-12-21T08:35:55.045519", "type": "gps", "data": {"raw": "$GPGSV,1,1,03,03,37,184,21,04,71,060,14,09,57,325,20,8*5B", "type": "$GPGSV", "timestamp": "2025-12-21T08:35:55.045515"}, "gps_position": {"latitude": 35.968400116666665, "longitude": -115.08140156666667, "altitude": 2718.504024}}
{"timestamp": "2025-12-21T08:35:55.045561", "type": "gps", "data": {"raw": "$GLGSV,1,1,03,02,71,006,17,12,80,008,29,01,46,127,26,1*44", "type": "$GLGSV", "timestamp": "2025-12-21T08:35:55.045558"}, "gps_position": {"latitude": 35.968400116666665, "longitude": -115.08140156666667, "altitude": 2718.504024}}
{"timestamp": "2025-12-21T08:35:55.045597", "type": "gps", "data": {"raw": "$GAGSV,3,1,09,02,63,128,29,03,44,093,18,07,21,303,25,08,67,347,22,7*75", "type": "$GAGSV", "timestamp": "2025-12-21T08:35:55.045593"}, "gps_position": {"latitude": 35.968400116666665, "longitude": -115.08140156666667, "altitude": 2718.504024}}
{"timestamp": "2025-12-21T08:35:55.045631", "type": "gps", "data": {"raw": "$GAGSV,3,2,09,13,14,254,15,16,12,039,15,25,33,050,24,26,10,304,15,7*73", "type": "$GAGSV", "timestamp": "2025-12-21T08:35:55.045627"}, "gps_position": {"latitude": 35.968400116666665, "longitude": -115.08140156666667, "altitude": 2718.504024}}
{"timestamp": "2025-12-21T08:35:55.045672", "type": "gps", "data": {"raw": "$GAGSV,3,3,09,30,26,191,25,7*43", "type": "$GAGSV", "timestamp": "2025-12-21T08:35:55.045668"}, "gps_position": {"latitude": 35.968400116666665, "longitude": -115.08140156666667, "altitude": 2718.504024}}
{"timestamp": "2025-12-21T08:35:55.045713", "type": "gps", "data": {"raw": "$GAGSV,1,1,04,02,63,128,19,03,44,093,15,08,67,347,17,13,14,254,15,1*77", "type": "$GAGSV", "timestamp": "2025-12-21T08:35:55.045710"}, "gps_position": {"latitude": 35.968400116666665, "longitude": -115.08140156666667, "altitude": 2718.504024}}
{"timestamp": "2025-12-21T08:35:55.045746", "type": "gps", "data": {"raw": "$GBGSV,1,1,01,22,75,150,19,1*49", "type": "$GBGSV", "timestamp": "2025-12-21T08:35:55.045742"}, "gps_position": {"latitude": 35.968400116666665, "longitude": -115.08140156666667, "altitude": 2718.504024}}
{"timestamp": "2025-12-21T08:35:55.046140", "type": "gps", "data": {"raw": "$GBGSV,2,1,06,19,21,141,21,21,48,316,22,22,75,150,28,26,13,231,13,3*7E", "type": "$GBGSV", "timestamp": "2025-12-21T08:35:55.046128"}, "gps_position": {"latitude": 35.968400116666665, "longitude": -115.08140156666667, "altitude": 2718.504024}}
{"timestamp": "2025-12-21T08:35:55.046420", "type": "gps", "data": {"raw": "$GBGSV,2,2,06,36,56,044,30,45,71,237,30,3*75", "type": "$GBGSV", "timestamp": "2025-12-21T08:35:55.046255"}, "gps_position": {"latitude": 35.968400116666665, "longitude": -115.08140156666667, "altitude": 2718.504024}}
{"timestamp": "2025-12-21T08:35:55.046657", "type": "gps", "data": {"raw": "$GBGSV,1,1,04,19,21,141,17,21,48,316,22,22,75,150,18,36,56,044,21,5*7E", "type": "$GBGSV", "timestamp": "2025-12-21T08:35:55.046650"}, "gps_position": {"latitude": 35.968400116666665, "longitude": -115.08140156666667, "altitude": 2718.504024}}
{"timestamp": "2025-12-21T08:35:55.046840", "type": "gps", "data": {"raw": "$GNGSA,A,3,03,04,07,08,09,27,,,,,,,0.9,0.6,0.7,1*3D", "type": "$GNGSA", "timestamp": "2025-12-21T08:35:55.046834"}, "gps_position": {"latitude": 35.968400116666665, "longitude": -115.08140156666667, "altitude": 2718.504024}}
{"timestamp": "2025-12-21T08:35:55.046907", "type": "gps", "data": {"raw": "$PSSGR,GSA,A,3,03,09,,,,,,,,,,,0.9,0.6,0.7,1,8*47", "type": "$PSSGR", "timestamp": "2025-12-21T08:35:55.046903"}, "gps_position": {"latitude": 35.968400116666665, "longitude": -115.08140156666667, "altitude": 2718.504024}}
{"timestamp": "2025-12-21T08:35:55.046949", "type": "gps", "data": {"raw": "$GNGSA,A,3,65,76,,,,,,,,,,,0.9,0.6,0.7,2*38", "type": "$GNGSA", "timestamp": "2025-12-21T08:35:55.046946"}, "gps_position": {"latitude": 35.968400116666665, "longitude": -115.08140156666667, "altitude": 2718.504024}}
{"timestamp": "2025-12-21T08:35:55.046984", "type": "gps", "data": {"raw": "$GNGSA,A,3,02,03,07,08,25,26,30,,,,,,0.9,0.6,0.7,3*35", "type": "$GNGSA", "timestamp": "2025-12-21T08:35:55.046981"}, "gps_position": {"latitude": 35.968400116666665, "longitude": -115.08140156666667, "altitude": 2718.504024}}
{"timestamp": "2025-12-21T08:35:55.047018", "type": "gps", "data": {"raw": "$PSSGR,GSA,A,3,302,,,,,,,,,,,,0.9,0.6,0.7,3,1*77", "type": "$PSSGR", "timestamp": "2025-12-21T08:35:55.047015"}, "gps_position": {"latitude": 35.968400116666665, "longitude": -115.08140156666667, "altitude": 2718.504024}}
{"timestamp": "2025-12-21T08:35:55.047055", "type": "gps", "data": {"raw": "$GNGSA,A,3,19,21,22,36,45,,,,,,,,0.9,0.6,0.7,4*33", "type": "$GNGSA", "timestamp": "2025-12-21T08:35:55.047052"}, "gps_position": {"latitude": 35.968400116666665, "longitude": -115.08140156666667, "altitude": 2718.504024}}
{"timestamp": "2025-12-21T08:35:55.047089", "type": "gps", "data": {"raw": "$PSSGR,GSA,A,3,221,236,,,,,,,,,,,0.9,0.6,0.7,4,5*43", "type": "$PSSGR", "timestamp": "2025-12-21T08:35:55.047086"}, "gps_position": {"latitude": 35.968400116666665, "longitude": -115.08140156666667, "altitude": 2718.504024}}
{"timestamp": "2025-12-21T08:35:55.047123", "type": "gps", "data": {"raw": "$GNVTG,,T,,M,0.0,N,0.0,K,A*3D", "type": "$GNVTG", "timestamp": "2025-12-21T08:35:55.047119"}, "gps_position": {"latitude": 35.968400116666665, "longitude": -115.08140156666667, "altitude": 2718.504024}}
{"timestamp": "2025-12-21T08:35:55.047157", "type": "gps", "data": {"raw": "$GNDTM,W84,,0000.000000,N,00000.000000,E,0.000,W84*41", "type": "$GNDTM", "timestamp": "2025-12-21T08:35:55.047153"}, "gps_position": {"latitude": 35.968400116666665, "longitude": -115.08140156666667, "altitude": 2718.504024}}
{"timestamp": "2025-12-21T08:35:55.047227", "type": "gps", "data": {"raw": "$GNRMC,163555.00,A,3558.104007,N,11504.884094,W,0.0,,211225,10.9,E,A,V*52", "type": "$GNRMC", "timestamp": "2025-12-21T08:35:55.047194", "time": "163555.00", "status": "A", "latitude": "35.968400116666665", "longitude": "-115.08140156666667", "speed": "0.0", "track": ""}, "gps_position": {"latitude": 35.968400116666665, "longitude": -115.08140156666667, "altitude": 2718.504024}}
{"timestamp": "2025-12-21T08:35:55.047273", "type": "gps", "data": {"raw": "$GNGNS,163555.00,3558.104007,N,11504.884094,W,AAAANN,20,0.6,828.6,-28.2,,,V*15", "type": "$GNGNS", "timestamp": "2025-12-21T08:35:55.047269"}, "gps_position": {"latitude": 35.968400116666665, "longitude": -115.08140156666667, "altitude": 2718.504024}}
{"timestamp": "2025-12-21T08:35:55.047331", "type": "gps", "data": {"raw": "$GNGGA,163555.00,3558.104007,N,11504.884094,W,1,12,0.6,828.6,M,-28.2,M,,*44", "type": "$GNGGA", "timestamp": "2025-12-21T08:35:55.047307", "time": "163555.00", "latitude": "35.968400116666665", "longitude": "-115.08140156666667", "fix_quality": "1", "satellites": "12", "altitude": "828.6"}, "gps_position": {"latitude": 35.968400116666665, "longitude": -115.08140156666667, "altitude": 2718.504024}}
{"timestamp": "2025-12-21T08:35:55.047377", "type": "gps", "data": {"raw": "$PSMSG,magcal=PASS,bluesky=0*00", "type": "$PSMSG", "timestamp": "2025-12-21T08:35:55.047373"}, "gps_position": {"latitude": 35.968400116666665, "longitude": -115.08140156666667, "altitude": 2718.504024}}
{"timestamp": "2025-12-21T08:35:56.051377", "type": "gps", "data": {"raw": "$GPGSV,2,1,07,03,37,184,24,04,71,060,30,07,36,268,33,08,11,144,23,1*6D", "type": "$GPGSV", "timestamp": "2025-12-21T08:35:56.051362"}, "gps_position": {"latitude": 35.968400116666665, "longitude": -115.08140156666667, "altitude": 2718.504024}}
{"timestamp": "2025-12-21T08:35:56.051680", "type": "gps", "data": {"raw": "$GPGSV,2,2,07,09,57,325,30,16,50,064,15,27,16,114,18,1*54", "type": "$GPGSV", "timestamp": "2025-12-21T08:35:56.051671"}, "gps_position": {"latitude": 35.968400116666665, "longitude": -115.08140156666667, "altitude": 2718.504024}}
{"timestamp": "2025-12-21T08:35:56.051889", "type": "gps", "data": {"raw": "$GPGSV,1,1,03,03,37,184,21,04,71,060,16,09,57,325,19,8*53", "type": "$GPGSV", "timestamp": "2025-12-21T08:35:56.051883"}, "gps_position": {"latitude": 35.968400116666665, "longitude": -115.08140156666667, "altitude": 2718.504024}}
{"timestamp": "2025-12-21T08:35:56.052034", "type": "gps", "data": {"raw": "$GLGSV,1,1,03,02,71,006,17,12,80,008,27,01,46,127,27,1*4B", "type": "$GLGSV", "timestamp": "2025-12-21T08:35:56.052028"}, "gps_position": {"latitude": 35.968400116666665, "longitude": -115.08140156666667, "altitude": 2718.504024}}
{"timestamp": "2025-12-21T08:35:56.052180", "type": "gps", "data": {"raw": "$GAGSV,3,1,09,02,63,128,24,03,44,093,18,07,21,303,23,08,67,347,29,7*75", "type": "$GAGSV", "timestamp": "2025-12-21T08:35:56.052173"}, "gps_position": {"latitude": 35.968400116666665, "longitude": -115.08140156666667, "altitude": 2718.504024}}
{"timestamp": "2025-12-21T08:35:56.052323", "type": "gps", "data": {"raw": "$GAGSV,3,2,09,13,14,254,15,16,12,039,15,25,33,050,23,26,10,304,15,7*74", "type": "$GAGSV", "timestamp": "2025-12-21T08:35:56.052316"}, "gps_position": {"latitude": 35.968400116666665, "longitude": -115.08140156666667, "altitude": 2718.504024}}
{"timestamp": "2025-12-21T08:35:56.052379", "type": "gps", "data": {"raw": "$GAGSV,3,3,09,30,26,191,22,7*44", "type": "$GAGSV", "timestamp": "2025-12-21T08:35:56.052375"}, "gps_position": {"latitude": 35.968400116666665, "longitude": -115.08140156666667, "altitude": 2718.504024}}
{"timestamp": "2025-12-21T08:35:56.052510", "type": "gps", "data": {"raw": "$GAGSV,1,1,04,02,63,128,16,03,44,093,15,08,67,347,17,13,14,254,15,1*78", "type": "$GAGSV", "timestamp": "2025-12-21T08:35:56.052505"}, "gps_position": {"latitude": 35.968400116666665, "longitude": -115.08140156666667, "altitude": 2718.504024}}
{"timestamp": "2025-12-21T08:35:56.052654", "type": "gps", "data": {"raw": "$GBGSV,1,1,01,22,75,150,19,1*49", "type": "$GBGSV", "timestamp": "2025-12-21T08:35:56.052648"}, "gps_position": {"latitude": 35.968400116666665, "longitude": -115.08140156666667, "altitude": 2718.504024}}
{"timestamp": "2025-12-21T08:35:56.052704", "type": "gps", "data": {"raw": "$GBGSV,2,1,06,19,21,141,22,21,48,316,21,22,75,150,27,26,13,231,13,3*71", "type": "$GBGSV", "timestamp": "2025-12-21T08:35:56.052701"}, "gps_position": {"latitude": 35.968400116666665, "longitude": -115.08140156666667, "altitude": 2718.504024}}
{"timestamp": "2025-12-21T08:35:56.052741", "type": "gps", "data": {"raw": "$GBGSV,2,2,06,36,56,044,29,45,71,237,25,3*79", "type": "$GBGSV", "timestamp": "2025-12-21T08:35:56.052738"}, "gps_position": {"latitude": 35.968400116666665, "longitude": -115.08140156666667, "altitude": 2718.504024}}
{"timestamp": "2025-12-21T08:35:56.052775", "type": "gps", "data": {"raw": "$GBGSV,1,1,04,19,21,141,17,21,48,316,22,22,75,150,18,36,56,044,19,5*75", "type": "$GBGSV", "timestamp": "2025-12-21T08:35:56.052772"}, "gps_position": {"latitude": 35.968400116666665, "longitude": -115.08140156666667, "altitude": 2718.504024}}
{"timestamp": "2025-12-21T08:35:56.052808", "type": "gps", "data": {"raw": "$GNGSA,A,3,03,04,07,08,09,16,27,,,,,,0.9,0.6,0.6,1*3B", "type": "$GNGSA", "timestamp": "2025-12-21T08:35:56.052805"}, "gps_position": {"latitude": 35.968400116666665, "longitude": -115.08140156666667, "altitude": 2718.504024}}
{"timestamp": "2025-12-21T08:35:56.052840", "type": "gps", "data": {"raw": "$PSSGR,GSA,A,3,03,09,,,,,,,,,,,0.9,0.6,0.6,1,8*46", "type": "$PSSGR", "timestamp": "2025-12-21T08:35:56.052837"}, "gps_position": {"latitude": 35.968400116666665, "longitude": -115.08140156666667, "altitude": 2718.504024}}
{"timestamp": "2025-12-21T08:35:56.052872", "type": "gps", "data": {"raw": "$GNGSA,A,3,65,76,,,,,,,,,,,0.9,0.6,0.6,2*39", "type": "$GNGSA", "timestamp": "2025-12-21T08:35:56.052869"}, "gps_position": {"latitude": 35.968400116666665, "longitude": -115.08140156666667, "altitude": 2718.504024}}
{"timestamp": "2025-12-21T08:35:56.052905", "type": "gps", "data": {"raw": "$GNGSA,A,3,02,03,07,08,16,25,26,30,,,,,0.9,0.6,0.6,3*33", "type": "$GNGSA", "timestamp": "2025-12-21T08:35:56.052902"}, "gps_position": {"latitude": 35.968400116666665, "longitude": -115.08140156666667, "altitude": 2718.504024}}
{"timestamp": "2025-12-21T08:35:56.052937", "type": "gps", "data": {"raw": "$PSSGR,GSA,A,3,302,,,,,,,,,,,,0.9,0.6,0.6,3,1*76", "type": "$PSSGR", "timestamp": "2025-12-21T08:35:56.052934"}, "gps_position": {"latitude": 35.968400116666665, "longitude": -115.08140156666667, "altitude": 2718.504024}}
{"timestamp": "2025-12-21T08:35:56.052968", "type": "gps", "data": {"raw": "$GNGSA,A,3,19,21,22,36,45,,,,,,,,0.9,0.6,0.6,4*32", "type": "$GNGSA", "timestamp": "2025-12-21T08:35:56.052965"}, "gps_position": {"latitude": 35.968400116666665, "longitude": -115.08140156666667, "altitude": 2718.504024}}
{"timestamp": "2025-12-21T08:35:56.052999", "type": "gps", "data": {"raw": "$PSSGR,GSA,A,3,221,236,,,,,,,,,,,0.9,0.6,0.6,4,5*42", "type": "$PSSGR", "timestamp": "2025-12-21T08:35:56.052996"}, "gps_position": {"latitude": 35.968400116666665, "longitude": -115.08140156666667, "altitude": 2718.504024}}
{"timestamp": "2025-12-21T08:35:56.053030", "type": "gps", "data": {"raw": "$GNVTG,,T,,M,0.0,N,0.0,K,A*3D", "type": "$GNVTG", "timestamp": "2025-12-21T08:35:56.053027"}, "gps_position": {"latitude": 35.968400116666665, "longitude": -115.08140156666667, "altitude": 2718.504024}}
{"timestamp": "2025-12-21T08:35:56.053061", "type": "gps", "data": {"raw": "$GNDTM,W84,,0000.000000,N,00000.000000,E,0.000,W84*41", "type": "$GNDTM", "timestamp": "2025-12-21T08:35:56.053059"}, "gps_position": {"latitude": 35.968400116666665, "longitude": -115.08140156666667, "altitude": 2718.504024}}
{"timestamp": "2025-12-21T08:35:56.053108", "type": "gps", "data": {"raw": "$GNRMC,163556.00,A,3558.104007,N,11504.884094,W,0.0,,211225,10.9,E,A,V*51", "type": "$GNRMC", "timestamp": "2025-12-21T08:35:56.053089", "time": "163556.00", "status": "A", "latitude": "35.968400116666665", "longitude": "-115.08140156666667", "speed": "0.0", "track": ""}, "gps_position": {"latitude": 35.968400116666665, "longitude": -115.08140156666667, "altitude": 2718.504024}}
{"timestamp": "2025-12-21T08:35:56.053149", "type": "gps", "data": {"raw": "$GNGNS,163556.00,3558.104007,N,11504.884094,W,AAAANN,22,0.6,828.6,-28.2,,,V*14", "type": "$GNGNS", "timestamp": "2025-12-21T08:35:56.053146"}, "gps_position": {"latitude": 35.968400116666665, "longitude": -115.08140156666667, "altitude": 2718.504024}}
{"timestamp": "2025-12-21T08:35:56.053193", "type": "gps", "data": {"raw": "$GNGGA,163556.00,3558.104007,N,11504.884094,W,1,12,0.6,828.6,M,-28.2,M,,*47", "type": "$GNGGA", "timestamp": "2025-12-21T08:35:56.053180", "time": "163556.00", "latitude": "35.968400116666665", "longitude": "-115.08140156666667", "fix_quality": "1", "satellites": "12", "altitude": "828.6"}, "gps_position": {"latitude": 35.968400116666665, "longitude": -115.08140156666667, "altitude": 2718.504024}}
{"timestamp": "2025-12-21T08:35:56.053229", "type": "gps", "data": {"raw": "$PSMSG,magcal=PASS,bluesky=0*00", "type": "$PSMSG", "timestamp": "2025-12-21T08:35:56.053226"}, "gps_position": {"latitude": 35.968400116666665, "longitude": -115.08140156666667, "altitude": 2718.504024}}
{"timestamp": "2025-12-21T08:35:57.055826", "type": "gps", "data": {"raw": "$GPGSV,2,1,07,03,37,184,24,04,71,060,29,07,36,268,31,08,11,144,23,1*67", "type": "$GPGSV", "timestamp": "2025-12-21T08:35:57.055809"}, "gps_position": {"latitude": 35.968400116666665, "longitude": -115.08140156666667, "altitude": 2718.504024}}
{"timestamp": "2025-12-21T08:35:57.055976", "type": "gps", "data": {"raw": "$GPGSV,2,2,07,09,57,325,28,16,50,064,15,27,16,114,18,1*5D", "type": "$GPGSV", "timestamp": "2025-12-21T08:35:57.055971"}, "gps_position": {"latitude": 35.968400116666665, "longitude": -115.08140156666667, "altitude": 2718.504024}}
{"timestamp": "2025-12-21T08:35:57.056023", "type": "gps", "data": {"raw": "$GPGSV,1,1,03,03,37,184,21,04,71,060,16,09,57,325,22,8*5B", "type": "$GPGSV", "timestamp": "2025-12-21T08:35:57.056019"}, "gps_position": {"latitude": 35.968400116666665, "longitude": -115.08140156666667, "altitude": 2718.504024}}
{"timestamp": "2025-12-21T08:35:57.056060", "type": "gps", "data": {"raw": "$GLGSV,1,1,03,02,71,006,17,12,80,008,27,01,46,127,28,1*44", "type": "$GLGSV", "timestamp": "2025-12-21T08:35:57.056057"}, "gps_position": {"latitude": 35.968400116666665, "longitude": -115.08140156666667, "altitude": 2718.504024}}
{"timestamp": "2025-12-21T08:35:57.056094", "type": "gps", "data": {"raw": "$GAGSV,3,1,09,02,63,128,24,03,44,093,18,07,21,303,23,08,67,347,27,7*7B", "type": "$GAGSV", "timestamp": "2025-12-21T08:35:57.056091"}, "gps_position": {"latitude": 35.968400116666665, "longitude": -115.08140156666667, "altitude": 2718.504024}}
{"timestamp": "2025-12-21T08:35:57.056128", "type": "gps", "data": {"raw": "$GAGSV,3,2,09,13,14,254,15,16,12,039,15,25,33,050,24,26,10,304,15,7*73", "type": "$GAGSV", "timestamp": "2025-12-21T08:35:57.056125"}, "gps_position": {"latitude": 35.968400116666665, "longitude": -115.08140156666667, "altitude": 2718.504024}}
{"timestamp": "2025-12-21T08:35:57.056160", "type": "gps", "data": {"raw": "$GAGSV,3,3,09,30,26,191,22,7*44", "type": "$GAGSV", "timestamp": "2025-12-21T08:35:57.056157"}, "gps_position": {"latitude": 35.968400116666665, "longitude": -115.08140156666667, "altitude": 2718.504024}}
{"timestamp": "2025-12-21T08:35:57.056193", "type": "gps", "data": {"raw": "$GAGSV,1,1,04,02,63,128,16,03,44,093,15,08,67,347,16,13,14,254,15,1*79", "type": "$GAGSV", "timestamp": "2025-12-21T08:35:57.056190"}, "gps_position": {"latitude": 35.968400116666665, "longitude": -115.08140156666667, "altitude": 2718.504024}}
{"timestamp": "2025-12-21T08:35:57.056224", "type": "gps", "data": {"raw": "$GBGSV,1,1,01,22,75,150,19,1*49", "type": "$GBGSV", "timestamp": "2025-12-21T08:35:57.056221"}, "gps_position": {"latitude": 35.968400116666665, "longitude": -115.08140156666667, "altitude": 2718.504024}}
{"timestamp": "2025-12-21T08:35:57.056261", "type": "gps", "data": {"raw": "$GBGSV,2,1,06,19,21,141,22,21,48,316,24,22,75,150,27,26,13,231,13,3*74", "type": "$GBGSV", "timestamp": "2025-12-21T08:35:57.056258"}, "gps_position": {"latitude": 35.968400116666665, "longitude": -115.08140156666667, "altitude": 2718.504024}}
{"timestamp": "2025-12-21T08:35:57.056293", "type": "gps", "data": {"raw": "$GBGSV,2,2,06,36,56,044,28,45,71,237,26,3*7B", "type": "$GBGSV", "timestamp": "2025-12-21T08:35:57.056290"}, "gps_position": {"latitude": 35.968400116666665, "longitude": -115.08140156666667, "altitude": 2718.504024}}
{"timestamp": "2025-12-21T08:35:57.056325", "type": "gps", "data": {"raw": "$GBGSV,1,1,04,19,21,141,17,21,48,316,22,22,75,150,18,36,56,044,19,5*75", "type": "$GBGSV", "timestamp": "2025-12-21T08:35:57.056322"}, "gps_position": {"latitude": 35.968400116666665, "longitude": -115.08140156666667, "altitude": 2718.504024}}
{"timestamp": "2025-12-21T08:35:57.056357", "type": "gps", "data": {"raw": "$GNGSA,A,3,03,04,07,08,09,16,27,,,,,,0.9,0.6,0.7,1*3A", "type": "$GNGSA", "timestamp": "2025-12-21T08:35:57.056354"}, "gps_position": {"latitude": 35.968400116666665, "longitude": -115.08140156666667, "altitude": 2718.504024}}
{"timestamp": "2025-12-21T08:35:57.056389", "type": "gps", "data": {"raw": "$PSSGR,GSA,A,3,03,09,,,,,,,,,,,0.9,0.6,0.7,1,8*47", "type": "$PSSGR", "timestamp": "2025-12-21T08:35:57.056386"}, "gps_position": {"latitude": 35.968400116666665, "longitude": -115.08140156666667, "altitude": 2718.504024}}
{"timestamp": "2025-12-21T08:35:57.056420", "type": "gps", "data": {"raw": "$GNGSA,A,3,65,76,,,,,,,,,,,0.9,0.6,0.7,2*38", "type": "$GNGSA", "timestamp": "2025-12-21T08:35:57.056417"}, "gps_position": {"latitude": 35.968400116666665, "longitude": -115.08140156666667, "altitude": 2718.504024}}
{"timestamp": "2025-12-21T08:35:57.056451", "type": "gps", "data": {"raw": "$GNGSA,A,3,02,03,07,08,13,16,25,30,,,,,0.9,0.6,0.7,3*34", "type": "$GNGSA", "timestamp": "2025-12-21T08:35:57.056448"}, "gps_position": {"latitude": 35.968400116666665, "longitude": -115.08140156666667, "altitude": 2718.504024}}
{"timestamp": "2025-12-21T08:35:57.056487", "type": "gps", "data": {"raw": "$PSSGR,GSA,A,3,302,,,,,,,,,,,,0.9,0.6,0.7,3,1*77", "type": "$PSSGR", "timestamp": "2025-12-21T08:35:57.056483"}, "gps_position": {"latitude": 35.968400116666665, "longitude": -115.08140156666667, "altitude": 2718.504024}}
{"timestamp": "2025-12-21T08:35:57.056522", "type": "gps", "data": {"raw": "$GNGSA,A,3,19,21,22,36,45,,,,,,,,0.9,0.6,0.7,4*33", "type": "$GNGSA", "timestamp": "2025-12-21T08:35:57.056519"}, "gps_position": {"latitude": 35.968400116666665, "longitude": -115.08140156666667, "altitude": 2718.504024}}
{"timestamp": "2025-12-21T08:35:57.056558", "type": "gps", "data": {"raw": "$PSSGR,GSA,A,3,221,236,,,,,,,,,,,0.9,0.6,0.7,4,5*43", "type": "$PSSGR", "timestamp": "2025-12-21T08:35:57.056555"}, "gps_position": {"latitude": 35.968400116666665, "longitude": -115.08140156666667, "altitude": 2718.504024}}
{"timestamp": "2025-12-21T08:35:57.056591", "type": "gps", "data": {"raw": "$GNVTG,,T,,M,0.0,N,0.0,K,A*3D", "type": "$GNVTG", "timestamp": "2025-12-21T08:35:57.056588"}, "gps_position": {"latitude": 35.968400116666665, "longitude": -115.08140156666667, "altitude": 2718.504024}}
{"timestamp": "2025-12-21T08:35:57.056624", "type": "gps", "data": {"raw": "$GNDTM,W84,,0000.000000,N,00000.000000,E,0.000,W84*41", "type": "$GNDTM", "timestamp": "2025-12-21T08:35:57.056621"}, "gps_position": {"latitude": 35.968400116666665, "longitude": -115.08140156666667, "altitude": 2718.504024}}
{"timestamp": "2025-12-21T08:35:57.056673", "type": "gps", "data": {"raw": "$GNRMC,163557.00,A,3558.104006,N,11504.884094,W,0.0,,211225,10.9,E,A,V*51", "type": "$GNRMC", "timestamp": "2025-12-21T08:35:57.056654", "time": "163557.00", "status": "A", "latitude": "35.9684001", "longitude": "-115.08140156666667", "speed": "0.0", "track": ""}, "gps_position": {"latitude": 35.9684001, "longitude": -115.08140156666667, "altitude": 2718.504024}}
{"timestamp": "2025-12-21T08:35:57.056716", "type": "gps", "data": {"raw": "$GNGNS,163557.00,3558.104006,N,11504.884094,W,AAAANN,22,0.6,828.6,-28.2,,,V*14", "type": "$GNGNS", "timestamp": "2025-12-21T08:35:57.056712"}, "gps_position": {"latitude": 35.9684001, "longitude": -115.08140156666667, "altitude": 2718.504024}}
{"timestamp": "2025-12-21T08:35:57.056759", "type": "gps", "data": {"raw": "$GNGGA,163557.00,3558.104006,N,11504.884094,W,1,12,0.6,828.6,M,-28.2,M,,*47", "type": "$GNGGA", "timestamp": "2025-12-21T08:35:57.056747", "time": "163557.00", "latitude": "35.9684001", "longitude": "-115.08140156666667", "fix_quality": "1", "satellites": "12", "altitude": "828.6"}, "gps_position": {"latitude": 35.9684001, "longitude": -115.08140156666667, "altitude": 2718.504024}}
{"timestamp": "2025-12-21T08:35:57.056796", "type": "gps", "data": {"raw": "$PSMSG,magcal=PASS,bluesky=0*00", "type": "$PSMSG", "timestamp": "2025-12-21T08:35:57.056792"}, "gps_position": {"latitude": 35.9684001, "longitude": -115.08140156666667, "altitude": 2718.504024}}
{"timestamp": "2025-12-21T08:35:58.035771", "type": "gps", "data": {"raw": "$GPGSV,2,1,07,03,37,184,25,04,71,060,27,07,36,268,31,08,11,144,23,1*68", "type": "$GPGSV", "timestamp": "2025-12-21T08:35:58.035750"}, "gps_position": {"latitude": 35.9684001, "longitude": -115.08140156666667, "altitude": 2718.504024}}
{"timestamp": "2025-12-21T08:35:58.035946", "type": "gps", "data": {"raw": "$GPGSV,2,2,07,09,57,325,28,16,50,064,15,27,16,114,18,1*5D", "type": "$GPGSV", "timestamp": "2025-12-21T08:35:58.035939"}, "gps_position": {"latitude": 35.9684001, "longitude": -115.08140156666667, "altitude": 2718.504024}}
{"timestamp": "2025-12-21T08:35:58.036023", "type": "gps", "data": {"raw": "$GPGSV,1,1,03,03,37,184,21,04,71,060,16,09,57,325,22,8*5B", "type": "$GPGSV", "timestamp": "2025-12-21T08:35:58.036018"}, "gps_position": {"latitude": 35.9684001, "longitude": -115.08140156666667, "altitude": 2718.504024}}
{"timestamp": "2025-12-21T08:35:58.036066", "type": "gps", "data": {"raw": "$GLGSV,1,1,03,02,71,006,17,12,80,008,28,01,46,127,29,1*4A", "type": "$GLGSV", "timestamp": "2025-12-21T08:35:58.036063"}, "gps_position": {"latitude": 35.9684001, "longitude": -115.08140156666667, "altitude": 2718.504024}}
{"timestamp": "2025-12-21T08:35:58.036103", "type": "gps", "data": {"raw": "$GAGSV,3,1,09,02,63,128,21,03,44,093,18,07,21,303,23,08,67,347,27,7*7E", "type": "$GAGSV", "timestamp": "2025-12-21T08:35:58.036099"}, "gps_position": {"latitude": 35.9684001, "longitude": -115.08140156666667, "altitude": 2718.504024}}
{"timestamp": "2025-12-21T08:35:58.036140", "type": "gps", "data": {"raw": "$GAGSV,3,2,09,13,14,254,15,16,12,039,20,25,33,050,21,26,10,304,15,7*70", "type": "$GAGSV", "timestamp": "2025-12-21T08:35:58.036137"}, "gps_position": {"latitude": 35.9684001, "longitude": -115.08140156666667, "altitude": 2718.504024}}
{"timestamp": "2025-12-21T08:35:58.036173", "type": "gps", "data": {"raw": "$GAGSV,3,3,09,30,26,191,21,7*47", "type": "$GAGSV", "timestamp": "2025-12-21T08:35:58.036170"}, "gps_position": {"latitude": 35.9684001, "longitude": -115.08140156666667, "altitude": 2718.504024}}
{"timestamp": "2025-12-21T08:35:58.036206", "type": "gps", "data": {"raw": "$GAGSV,1,1,04,02,63,128,16,03,44,093,15,08,67,347,16,13,14,254,15,1*79", "type": "$GAGSV", "timestamp": "2025-12-21T08:35:58.036203"}, "gps_position": {"latitude": 35.9684001, "longitude": -115.08140156666667, "altitude": 2718.504024}}
{"timestamp": "2025-12-21T08:35:58.036238", "type": "gps", "data": {"raw": "$GBGSV,1,1,01,22,75,150,19,1*49", "type": "$GBGSV", "timestamp": "2025-12-21T08:35:58.036235"}, "gps_position": {"latitude": 35.9684001, "longitude": -115.08140156666667, "altitude": 2718.504024}}
{"timestamp": "2025-12-21T08:35:58.036270", "type": "gps", "data": {"raw": "$GBGSV,2,1,06,19,21,141,22,21,48,316,22,22,75,150,27,26,13,231,13,3*72", "type": "$GBGSV", "timestamp": "2025-12-21T08:35:58.036267"}, "gps_position": {"latitude": 35.9684001, "longitude": -115.08140156666667, "altitude": 2718.504024}}
{"timestamp": "2025-12-21T08:35:58.036315", "type": "gps", "data": {"raw": "$GBGSV,2,2,06,36,56,044,27,45,71,237,25,3*77", "type": "$GBGSV", "timestamp": "2025-12-21T08:35:58.036312"}, "gps_position": {"latitude": 35.9684001, "longitude": -115.08140156666667, "altitude": 2718.504024}}
{"timestamp": "2025-12-21T08:35:58.036349", "type": "gps", "data": {"raw": "$GBGSV,1,1,04,19,21,141,17,21,48,316,22,22,75,150,18,36,56,044,20,5*7F", "type": "$GBGSV", "timestamp": "2025-12-21T08:35:58.036346"}, "gps_position": {"latitude": 35.9684001, "longitude": -115.08140156666667, "altitude": 2718.504024}}
{"timestamp": "2025-12-21T08:35:58.036382", "type": "gps", "data": {"raw": "$GNGSA,A,3,03,04,07,08,09,16,27,,,,,,0.9,0.6,0.7,1*3A", "type": "$GNGSA", "timestamp": "2025-12-21T08:35:58.036379"}, "gps_position": {"latitude": 35.9684001, "longitude": -115.08140156666667, "altitude": 2718.504024}}
{"timestamp": "2025-12-21T08:35:58.036414", "type": "gps", "data": {"raw": "$PSSGR,GSA,A,3,03,09,,,,,,,,,,,0.9,0.6,0.7,1,8*47", "type": "$PSSGR", "timestamp": "2025-12-21T08:35:58.036411"}, "gps_position": {"latitude": 35.9684001, "longitude": -115.08140156666667, "altitude": 2718.504024}}
{"timestamp": "2025-12-21T08:35:58.036446", "type": "gps", "data": {"raw": "$GNGSA,A,3,65,76,,,,,,,,,,,0.9,0.6,0.7,2*38", "type": "$GNGSA", "timestamp": "2025-12-21T08:35:58.036443"}, "gps_position": {"latitude": 35.9684001, "longitude": -115.08140156666667, "altitude": 2718.504024}}
{"timestamp": "2025-12-21T08:35:58.036478", "type": "gps", "data": {"raw": "$GNGSA,A,3,02,03,07,08,13,16,25,30,,,,,0.9,0.6,0.7,3*34", "type": "$GNGSA", "timestamp": "2025-12-21T08:35:58.036475"}, "gps_position": {"latitude": 35.9684001, "longitude": -115.08140156666667, "altitude": 2718.504024}}
{"timestamp": "2025-12-21T08:35:58.036509", "type": "gps", "data": {"raw": "$GNGSA,A,3,19,21,22,36,45,,,,,,,,0.9,0.6,0.7,4*33", "type": "$GNGSA", "timestamp": "2025-12-21T08:35:58.036506"}, "gps_position": {"latitude": 35.9684001, "longitude": -115.08140156666667, "altitude": 2718.504024}}
{"timestamp": "2025-12-21T08:35:58.036543", "type": "gps", "data": {"raw": "$PSSGR,GSA,A,3,221,236,,,,,,,,,,,0.9,0.6,0.7,4,5*43", "type": "$PSSGR", "timestamp": "2025-12-21T08:35:58.036539"}, "gps_position": {"latitude": 35.9684001, "longitude": -115.08140156666667, "altitude": 2718.504024}}
{"timestamp": "2025-12-21T08:35:58.036577", "type": "gps", "data": {"raw": "$GNVTG,,T,,M,0.0,N,0.0,K,A*3D", "type": "$GNVTG", "timestamp": "2025-12-21T08:35:58.036574"}, "gps_position": {"latitude": 35.9684001, "longitude": -115.08140156666667, "altitude": 2718.504024}}
{"timestamp": "2025-12-21T08:35:58.036612", "type": "gps", "data": {"raw": "$GNDTM,W84,,0000.000000,N,00000.000000,E,0.000,W84*41", "type": "$GNDTM", "timestamp": "2025-12-21T08:35:58.036609"}, "gps_position": {"latitude": 35.9684001, "longitude": -115.08140156666667, "altitude": 2718.504024}}
{"timestamp": "2025-12-21T08:35:58.036663", "type": "gps", "data": {"raw": "$GNRMC,163558.00,A,3558.104006,N,11504.884094,W,0.0,,211225,10.9,E,A,V*5E", "type": "$GNRMC", "timestamp": "2025-12-21T08:35:58.036641", "time": "163558.00", "status": "A", "latitude": "35.9684001", "longitude": "-115.08140156666667", "speed": "0.0", "track": ""}, "gps_position": {"latitude": 35.9684001, "longitude": -115.08140156666667, "altitude": 2718.504024}}
{"timestamp": "2025-12-21T08:35:58.036706", "type": "gps", "data": {"raw": "$GNGNS,163558.00,3558.104006,N,11504.884094,W,AAAANN,22,0.6,828.6,-28.2,,,V*1B", "type": "$GNGNS", "timestamp": "2025-12-21T08:35:58.036703"}, "gps_position": {"latitude": 35.9684001, "longitude": -115.08140156666667, "altitude": 2718.504024}}
{"timestamp": "2025-12-21T08:35:58.036754", "type": "gps", "data": {"raw": "$GNGGA,163558.00,3558.104006,N,11504.884094,W,1,12,0.6,828.6,M,-28.2,M,,*48", "type": "$GNGGA", "timestamp": "2025-12-21T08:35:58.036739", "time": "163558.00", "latitude": "35.9684001", "longitude": "-115.08140156666667", "fix_quality": "1", "satellites": "12", "altitude": "828.6"}, "gps_position": {"latitude": 35.9684001, "longitude": -115.08140156666667, "altitude": 2718.504024}}
{"timestamp": "2025-12-21T08:35:58.036799", "type": "gps", "data": {"raw": "$PSMSG,magcal=PASS,bluesky=0*00", "type": "$PSMSG", "timestamp": "2025-12-21T08:35:58.036795"}, "gps_position": {"latitude": 35.9684001, "longitude": -115.08140156666667, "altitude": 2718.504024}}
{"timestamp": "2025-12-21T08:35:59.049517", "type": "gps", "data": {"raw": "$GPGSV,2,1,07,03,37,184,24,04,71,060,28,07,36,268,32,08,11,144,21,1*67", "type": "$GPGSV", "timestamp": "2025-12-21T08:35:59.049494"}, "gps_position": {"latitude": 35.9684001, "longitude": -115.08140156666667, "altitude": 2718.504024}}
{"timestamp": "2025-12-21T08:35:59.049707", "type": "gps", "data": {"raw": "$GPGSV,2,2,07,09,57,325,29,16,50,064,15,27,16,114,18,1*5C", "type": "$GPGSV", "timestamp": "2025-12-21T08:35:59.049699"}, "gps_position": {"latitude": 35.9684001, "longitude": -115.08140156666667, "altitude": 2718.504024}}
{"timestamp": "2025-12-21T08:35:59.049776", "type": "gps", "data": {"raw": "$GPGSV,1,1,03,03,37,184,20,04,71,060,16,09,57,325,22,8*5A", "type": "$GPGSV", "timestamp": "2025-12-21T08:35:59.049771"}, "gps_position": {"latitude": 35.9684001, "longitude": -115.08140156666667, "altitude": 2718.504024}}
{"timestamp": "2025-12-21T08:35:59.049852", "type": "gps", "data": {"raw": "$GLGSV,1,1,03,02,71,006,17,12,80,008,26,01,46,127,29,1*44", "type": "$GLGSV", "timestamp": "2025-12-21T08:35:59.049846"}, "gps_position": {"latitude": 35.9684001, "longitude": -115.08140156666667, "altitude": 2718.504024}}
{"timestamp": "2025-12-21T08:35:59.049914", "type": "gps", "data": {"raw": "$GAGSV,3,1,09,02,63,128,21,03,44,093,18,07,21,303,23,08,67,347,28,7*71", "type": "$GAGSV", "timestamp": "2025-12-21T08:35:59.049909"}, "gps_position": {"latitude": 35.9684001, "longitude": -115.08140156666667, "altitude": 2718.504024}}
{"timestamp": "2025-12-21T08:35:59.049962", "type": "gps", "data": {"raw": "$GAGSV,3,2,09,13,14,254,15,16,12,039,20,25,33,050,24,26,10,304,15,7*75", "type": "$GAGSV", "timestamp": "2025-12-21T08:35:59.049958"}, "gps_position": {"latitude": 35.9684001, "longitude": -115.08140156666667, "altitude": 2718.504024}}
{"timestamp": "2025-12-21T08:35:59.050008", "type": "gps", "data": {"raw": "$GAGSV,3,3,09,30,26,191,21,7*47", "type": "$GAGSV", "timestamp": "2025-12-21T08:35:59.050004"}, "gps_position": {"latitude": 35.9684001, "longitude": -115.08140156666667, "altitude": 2718.504024}}
{"timestamp": "2025-12-21T08:35:59.050054", "type": "gps", "data": {"raw": "$GAGSV,1,1,04,02,63,128,16,03,44,093,15,08,67,347,19,13,14,254,15,1*76", "type": "$GAGSV", "timestamp": "2025-12-21T08:35:59.050049"}, "gps_position": {"latitude": 35.9684001, "longitude": -115.08140156666667, "altitude": 2718.504024}}
{"timestamp": "2025-12-21T08:35:59.050097", "type": "gps", "data": {"raw": "$GBGSV,1,1,01,22,75,150,19,1*49", "type": "$GBGSV", "timestamp": "2025-12-21T08:35:59.050093"}, "gps_position": {"latitude": 35.9684001, "longitude": -115.08140156666667, "altitude": 2718.504024}}
{"timestamp": "2025-12-21T08:35:59.050142", "type": "gps", "data": {"raw": "$GBGSV,2,1,06,19,21,141,18,21,48,316,22,22,75,150,28,26,13,231,13,3*74", "type": "$GBGSV", "timestamp": "2025-12-21T08:35:59.050138"}, "gps_position": {"latitude": 35.9684001, "longitude": -115.08140156666667, "altitude": 2718.504024}}
{"timestamp": "2025-12-21T08:35:59.050187", "type": "gps", "data": {"raw": "$GBGSV,2,2,06,36,56,044,27,45,71,237,24,3*76", "type": "$GBGSV", "timestamp": "2025-12-21T08:35:59.050183"}, "gps_position": {"latitude": 35.9684001, "longitude": -115.08140156666667, "altitude": 2718.504024}}
{"timestamp": "2025-12-21T08:35:59.050237", "type": "gps", "data": {"raw": "$GBGSV,1,1,04,19,21,141,17,21,48,316,22,22,75,150,18,36,56,044,22,5*7D", "type": "$GBGSV", "timestamp": "2025-12-21T08:35:59.050232"}, "gps_position": {"latitude": 35.9684001, "longitude": -115.08140156666667, "altitude": 2718.504024}}
{"timestamp": "2025-12-21T08:35:59.050285", "type": "gps", "data": {"raw": "$GNGSA,A,3,03,04,07,08,09,16,27,,,,,,0.9,0.6,0.7,1*3A", "type": "$GNGSA", "timestamp": "2025-12-21T08:35:59.050280"}, "gps_position": {"latitude": 35.9684001, "longitude": -115.08140156666667, "altitude": 2718.504024}}
{"timestamp": "2025-12-21T08:35:59.050340", "type": "gps", "data": {"raw": "$PSSGR,GSA,A,3,03,09,,,,,,,,,,,0.9,0.6,0.7,1,8*47", "type": "$PSSGR", "timestamp": "2025-12-21T08:35:59.050335"}, "gps_position": {"latitude": 35.9684001, "longitude": -115.08140156666667, "altitude": 2718.504024}}
{"timestamp": "2025-12-21T08:35:59.050385", "type": "gps", "data": {"raw": "$GNGSA,A,3,65,76,,,,,,,,,,,0.9,0.6,0.7,2*38", "type": "$GNGSA", "timestamp": "2025-12-21T08:35:59.050381"}, "gps_position": {"latitude": 35.9684001, "longitude": -115.08140156666667, "altitude": 2718.504024}}
{"timestamp": "2025-12-21T08:35:59.050429", "type": "gps", "data": {"raw": "$GNGSA,A,3,02,03,07,08,13,16,25,30,,,,,0.9,0.6,0.7,3*34", "type": "$GNGSA", "timestamp": "2025-12-21T08:35:59.050425"}, "gps_position": {"latitude": 35.9684001, "longitude": -115.08140156666667, "altitude": 2718.504024}}
{"timestamp": "2025-12-21T08:35:59.050473", "type": "gps", "data": {"raw": "$PSSGR,GSA,A,3,308,,,,,,,,,,,,0.9,0.6,0.7,3,1*7D", "type": "$PSSGR", "timestamp": "2025-12-21T08:35:59.050468"}, "gps_position": {"latitude": 35.9684001, "longitude": -115.08140156666667, "altitude": 2718.504024}}
{"timestamp": "2025-12-21T08:35:59.050516", "type": "gps", "data": {"raw": "$GNGSA,A,3,19,21,22,36,45,,,,,,,,0.9,0.6,0.7,4*33", "type": "$GNGSA", "timestamp": "2025-12-21T08:35:59.050512"}, "gps_position": {"latitude": 35.9684001, "longitude": -115.08140156666667, "altitude": 2718.504024}}
{"timestamp": "2025-12-21T08:35:59.050559", "type": "gps", "data": {"raw": "$PSSGR,GSA,A,3,221,236,,,,,,,,,,,0.9,0.6,0.7,4,5*43", "type": "$PSSGR", "timestamp": "2025-12-21T08:35:59.050555"}, "gps_position": {"latitude": 35.9684001, "longitude": -115.08140156666667, "altitude": 2718.504024}}
{"timestamp": "2025-12-21T08:35:59.050602", "type": "gps", "data": {"raw": "$GNVTG,,T,,M,0.0,N,0.0,K,A*3D", "type": "$GNVTG", "timestamp": "2025-12-21T08:35:59.050598"}, "gps_position": {"latitude": 35.9684001, "longitude": -115.08140156666667, "altitude": 2718.504024}}
{"timestamp": "2025-12-21T08:35:59.050646", "type": "gps", "data": {"raw": "$GNDTM,W84,,0000.000000,N,00000.000000,E,0.000,W84*41", "type": "$GNDTM", "timestamp": "2025-12-21T08:35:59.050642"}, "gps_position": {"latitude": 35.9684001, "longitude": -115.08140156666667, "altitude": 2718.504024}}
{"timestamp": "2025-12-21T08:35:59.050711", "type": "gps", "data": {"raw": "$GNRMC,163559.00,A,3558.104006,N,11504.884094,W,0.0,,211225,10.9,E,A,V*5F", "type": "$GNRMC", "timestamp": "2025-12-21T08:35:59.050686", "time": "163559.00", "status": "A", "latitude": "35.9684001", "longitude": "-115.08140156666667", "speed": "0.0", "track": ""}, "gps_position": {"latitude": 35.9684001, "longitude": -115.08140156666667, "altitude": 2718.504024}}
{"timestamp": "2025-12-21T08:35:59.050765", "type": "gps", "data": {"raw": "$GNGNS,163559.00,3558.104006,N,11504.884094,W,AAAANN,22,0.6,828.6,-28.2,,,V*1A", "type": "$GNGNS", "timestamp": "2025-12-21T08:35:59.050760"}, "gps_position": {"latitude": 35.9684001, "longitude": -115.08140156666667, "altitude": 2718.504024}}
{"timestamp": "2025-12-21T08:35:59.050824", "type": "gps", "data": {"raw": "$GNGGA,163559.00,3558.104006,N,11504.884094,W,1,12,0.6,828.6,M,-28.2,M,,*49", "type": "$GNGGA", "timestamp": "2025-12-21T08:35:59.050807", "time": "163559.00", "latitude": "35.9684001", "longitude": "-115.08140156666667", "fix_quality": "1", "satellites": "12", "altitude": "828.6"}, "gps_position": {"latitude": 35.9684001, "longitude": -115.08140156666667, "altitude": 2718.504024}}
{"timestamp": "2025-12-21T08:35:59.050876", "type": "gps", "data": {"raw": "$PSMSG,magcal=PASS,bluesky=0*00", "type": "$PSMSG", "timestamp": "2025-12-21T08:35:59.050871"}, "gps_position": {"latitude": 35.9684001, "longitude": -115.08140156666667, "altitude": 2718.504024}}
{"timestamp": "2025-12-21T08:36:00.048897", "type": "gps", "data": {"raw": "$GPGSV,2,1,08,03,37,184,25,04,71,060,29,07,36,268,31,08,11,144,21,1*6B", "type": "$GPGSV", "timestamp": "2025-12-21T08:36:00.048877"}, "gps_position": {"latitude": 35.9684001, "longitude": -115.08140156666667, "altitude": 2718.504024}}
{"timestamp": "2025-12-21T08:36:00.049064", "type": "gps", "data": {"raw": "$GPGSV,2,2,08,09,57,325,29,16,50,064,15,27,16,114,18,31,07,064,16,1*63", "type": "$GPGSV", "timestamp": "2025-12-21T08:36:00.049058"}, "gps_position": {"latitude": 35.9684001, "longitude": -115.08140156666667, "altitude": 2718.504024}}
{"timestamp": "2025-12-21T08:36:00.049115", "type": "gps", "data": {"raw": "$GPGSV,1,1,03,03,37,184,20,04,71,060,16,09,57,325,22,8*5A", "type": "$GPGSV", "timestamp": "2025-12-21T08:36:00.049111"}, "gps_position": {"latitude": 35.9684001, "longitude": -115.08140156666667, "altitude": 2718.504024}}
{"timestamp": "2025-12-21T08:36:00.049153", "type": "gps", "data": {"raw": "$GLGSV,1,1,03,02,71,006,17,12,80,008,26,01,46,127,28,1*45", "type": "$GLGSV", "timestamp": "2025-12-21T08:36:00.049149"}, "gps_position": {"latitude": 35.9684001, "longitude": -115.08140156666667, "altitude": 2718.504024}}
{"timestamp": "2025-12-21T08:36:00.049187", "type": "gps", "data": {"raw": "$GAGSV,3,1,09,02,63,128,19,03,44,093,18,07,21,303,16,08,67,347,27,7*73", "type": "$GAGSV", "timestamp": "2025-12-21T08:36:00.049184"}, "gps_position": {"latitude": 35.9684001, "longitude": -115.08140156666667, "altitude": 2718.504024}}
{"timestamp": "2025-12-21T08:36:00.049221", "type": "gps", "data": {"raw": "$GAGSV,3,2,09,13,14,254,18,16,12,039,20,25,33,050,23,26,10,304,16,7*7C", "type": "$GAGSV", "timestamp": "2025-12-21T08:36:00.049218"}, "gps_position": {"latitude": 35.9684001, "longitude": -115.08140156666667, "altitude": 2718.504024}}
{"timestamp": "2025-12-21T08:36:00.049253", "type": "gps", "data": {"raw": "$GAGSV,3,3,09,30,26,191,23,7*45", "type": "$GAGSV", "timestamp": "2025-12-21T08:36:00.049250"}, "gps_position": {"latitude": 35.9684001, "longitude": -115.08140156666667, "altitude": 2718.504024}}
{"timestamp": "2025-12-21T08:36:00.049286", "type": "gps", "data": {"raw": "$GAGSV,1,1,04,02,63,128,16,03,44,093,15,08,67,347,19,13,14,254,15,1*76", "type": "$GAGSV", "timestamp": "2025-12-21T08:36:00.049283"}, "gps_position": {"latitude": 35.9684001, "longitude": -115.08140156666667, "altitude": 2718.504024}}
{"timestamp": "2025-12-21T08:36:00.049317", "type": "gps", "data": {"raw": "$GBGSV,1,1,01,22,75,150,19,1*49", "type": "$GBGSV", "timestamp": "2025-12-21T08:36:00.049314"}, "gps_position": {"latitude": 35.9684001, "longitude": -115.08140156666667, "altitude": 2718.504024}}
{"timestamp": "2025-12-21T08:36:00.049348", "type": "gps", "data": {"raw": "$GBGSV,2,1,06,19,21,141,21,21,48,316,21,22,75,150,28,26,13,231,13,3*7D", "type": "$GBGSV", "timestamp": "2025-12-21T08:36:00.049346"}, "gps_position": {"latitude": 35.9684001, "longitude": -115.08140156666667, "altitude": 2718.504024}}
{"timestamp": "2025-12-21T08:36:00.049380", "type": "gps", "data": {"raw": "$GBGSV,2,2,06,36,56,044,28,45,71,237,24,3*79", "type": "$GBGSV", "timestamp": "2025-12-21T08:36:00.049377"}, "gps_position": {"latitude": 35.9684001, "longitude": -115.08140156666667, "altitude": 2718.504024}}
{"timestamp": "2025-12-21T08:36:00.049412", "type": "gps", "data": {"raw": "$GBGSV,1,1,04,19,21,141,17,21,48,316,22,22,75,150,18,36,56,044,21,5*7E", "type": "$GBGSV", "timestamp": "2025-12-21T08:36:00.049409"}, "gps_position": {"latitude": 35.9684001, "longitude": -115.08140156666667, "altitude": 2718.504024}}
{"timestamp": "2025-12-21T08:36:00.049443", "type": "gps", "data": {"raw": "$GNGSA,A,3,03,04,07,08,09,16,27,31,,,,,0.8,0.5,0.6,1*3B", "type": "$GNGSA", "timestamp": "2025-12-21T08:36:00.049440"}, "gps_position": {"latitude": 35.9684001, "longitude": -115.08140156666667, "altitude": 2718.504024}}
{"timestamp": "2025-12-21T08:36:00.049475", "type": "gps", "data": {"raw": "$PSSGR,GSA,A,3,09,,,,,,,,,,,,0.8,0.5,0.6,1,8*47", "type": "$PSSGR", "timestamp": "2025-12-21T08:36:00.049472"}, "gps_position": {"latitude": 35.9684001, "longitude": -115.08140156666667, "altitude": 2718.504024}}
{"timestamp": "2025-12-21T08:36:00.049505", "type": "gps", "data": {"raw": "$GNGSA,A,3,65,66,76,,,,,,,,,,0.8,0.5,0.6,2*3B", "type": "$GNGSA", "timestamp": "2025-12-21T08:36:00.049503"}, "gps_position": {"latitude": 35.9684001, "longitude": -115.08140156666667, "altitude": 2718.504024}}
{"timestamp": "2025-12-21T08:36:00.049548", "type": "gps", "data": {"raw": "$GNGSA,A,3,02,03,07,08,13,16,25,26,30,,,,0.8,0.5,0.6,3*33", "type": "$GNGSA", "timestamp": "2025-12-21T08:36:00.049545"}, "gps_position": {"latitude": 35.9684001, "longitude": -115.08140156666667, "altitude": 2718.504024}}
{"timestamp": "2025-12-21T08:36:00.049581", "type": "gps", "data": {"raw": "$PSSGR,GSA,A,3,308,,,,,,,,,,,,0.8,0.5,0.6,3,1*7E", "type": "$PSSGR", "timestamp": "2025-12-21T08:36:00.049578"}, "gps_position": {"latitude": 35.9684001, "longitude": -115.08140156666667, "altitude": 2718.504024}}
{"timestamp": "2025-12-21T08:36:00.049612", "type": "gps", "data": {"raw": "$GNGSA,A,3,19,21,22,36,45,,,,,,,,0.8,0.5,0.6,4*30", "type": "$GNGSA", "timestamp": "2025-12-21T08:36:00.049609"}, "gps_position": {"latitude": 35.9684001, "longitude": -115.08140156666667, "altitude": 2718.504024}}
{"timestamp": "2025-12-21T08:36:00.049643", "type": "gps", "data": {"raw": "$PSSGR,GSA,A,3,221,236,,,,,,,,,,,0.8,0.5,0.6,4,5*40", "type": "$PSSGR", "timestamp": "2025-12-21T08:36:00.049641"}, "gps_position": {"latitude": 35.9684001, "longitude": -115.08140156666667, "altitude": 2718.504024}}
{"timestamp": "2025-12-21T08:36:00.049682", "type": "gps", "data": {"raw": "$GNVTG,,T,,M,0.0,N,0.0,K,A*3D", "type": "$GNVTG", "timestamp": "2025-12-21T08:36:00.049679"}, "gps_position": {"latitude": 35.9684001, "longitude": -115.08140156666667, "altitude": 2718.504024}}
{"timestamp": "2025-12-21T08:36:00.049716", "type": "gps", "data": {"raw": "$GNDTM,W84,,0000.000000,N,00000.000000,E,0.000,W84*41", "type": "$GNDTM", "timestamp": "2025-12-21T08:36:00.049713"}, "gps_position": {"latitude": 35.9684001, "longitude": -115.08140156666667, "altitude": 2718.504024}}
{"timestamp": "2025-12-21T08:36:00.049765", "type": "gps", "data": {"raw": "$GNRMC,163600.00,A,3558.104006,N,11504.884094,W,0.0,,211225,10.9,E,A,V*50", "type": "$GNRMC", "timestamp": "2025-12-21T08:36:00.049745", "time": "163600.00", "status": "A", "latitude": "35.9684001", "longitude": "-115.08140156666667", "speed": "0.0", "track": ""}, "gps_position": {"latitude": 35.9684001, "longitude": -115.08140156666667, "altitude": 2718.504024}}
{"timestamp": "2025-12-21T08:36:00.049806", "type": "gps", "data": {"raw": "$GNGNS,163600.00,3558.104006,N,11504.884094,W,AAAANN,25,0.5,828.6,-28.2,,,V*11", "type": "$GNGNS", "timestamp": "2025-12-21T08:36:00.049802"}, "gps_position": {"latitude": 35.9684001, "longitude": -115.08140156666667, "altitude": 2718.504024}}
{"timestamp": "2025-12-21T08:36:00.049875", "type": "gps", "data": {"raw": "$GNGGA,163600.00,3558.104006,N,11504.884094,W,1,12,0.5,828.6,M,-28.2,M,,*45", "type": "$GNGGA", "timestamp": "2025-12-21T08:36:00.049859", "time": "163600.00", "latitude": "35.9684001", "longitude": "-115.08140156666667", "fix_quality": "1", "satellites": "12", "altitude": "828.6"}, "gps_position": {"latitude": 35.9684001, "longitude": -115.08140156666667, "altitude": 2718.504024}}
{"timestamp": "2025-12-21T08:36:00.049925", "type": "gps", "data": {"raw": "$PSMSG,magcal=PASS,bluesky=0*00", "type": "$PSMSG", "timestamp": "2025-12-21T08:36:00.049921"}, "gps_position": {"latitude": 35.9684001, "longitude": -115.08140156666667, "altitude": 2718.504024}}
{"timestamp": "2025-12-21T08:36:01.032806", "type": "gps", "data": {"raw": "$GPGSV,2,1,08,03,37,184,25,04,71,060,27,07,36,268,32,08,11,144,21,1*66", "type": "$GPGSV", "timestamp": "2025-12-21T08:36:01.032787"}, "gps_position": {"latitude": 35.9684001, "longitude": -115.08140156666667, "altitude": 2718.504024}}
{"timestamp": "2025-12-21T08:36:01.032978", "type": "gps", "data": {"raw": "$GPGSV,2,2,08,09,57,325,26,16,50,064,15,27,16,114,18,31,07,064,16,1*6C", "type": "$GPGSV", "timestamp": "2025-12-21T08:36:01.032969"}, "gps_position": {"latitude": 35.9684001, "longitude": -115.08140156666667, "altitude": 2718.504024}}
{"timestamp": "2025-12-21T08:36:01.033041", "type": "gps", "data": {"raw": "$GPGSV,1,1,03,03,37,184,21,04,71,060,16,09,57,325,20,8*59", "type": "$GPGSV", "timestamp": "2025-12-21T08:36:01.033037"}, "gps_position": {"latitude": 35.9684001, "longitude": -115.08140156666667, "altitude": 2718.504024}}
{"timestamp": "2025-12-21T08:36:01.033081", "type": "gps", "data": {"raw": "$GLGSV,1,1,03,02,71,006,17,12,80,008,27,01,46,127,28,1*44", "type": "$GLGSV", "timestamp": "2025-12-21T08:36:01.033078"}, "gps_position": {"latitude": 35.9684001, "longitude": -115.08140156666667, "altitude": 2718.504024}}
{"timestamp": "2025-12-21T08:36:01.033119", "type": "gps", "data": {"raw": "$GAGSV,3,1,09,02,63,128,21,03,44,093,17,07,21,303,22,08,67,347,27,7*70", "type": "$GAGSV", "timestamp": "2025-12-21T08:36:01.033115"}, "gps_position": {"latitude": 35.9684001, "longitude": -115.08140156666667, "altitude": 2718.504024}}
{"timestamp": "2025-12-21T08:36:01.033152", "type": "gps", "data": {"raw": "$GAGSV,3,2,09,13,14,254,18,16,12,039,20,25,33,050,22,26,10,304,16,7*7D", "type": "$GAGSV", "timestamp": "2025-12-21T08:36:01.033149"}, "gps_position": {"latitude": 35.9684001, "longitude": -115.08140156666667, "altitude": 2718.504024}}
{"timestamp": "2025-12-21T08:36:01.033184", "type": "gps", "data": {"raw": "$GAGSV,3,3,09,30,26,191,23,7*45", "type": "$GAGSV", "timestamp": "2025-12-21T08:36:01.033181"}, "gps_position": {"latitude": 35.9684001, "longitude": -115.08140156666667, "altitude": 2718.504024}}
{"timestamp": "2025-12-21T08:36:01.033217", "type": "gps", "data": {"raw": "$GAGSV,1,1,04,02,63,128,16,03,44,093,14,08,67,347,19,13,14,254,14,1*76", "type": "$GAGSV", "timestamp": "2025-12-21T08:36:01.033214"}, "gps_position": {"latitude": 35.9684001, "longitude": -115.08140156666667, "altitude": 2718.504024}}
{"timestamp": "2025-12-21T08:36:01.033249", "type": "gps", "data": {"raw": "$GBGSV,1,1,01,22,75,150,19,1*49", "type": "$GBGSV", "timestamp": "2025-12-21T08:36:01.033246"}, "gps_position": {"latitude": 35.9684001, "longitude": -115.08140156666667, "altitude": 2718.504024}}
{"timestamp": "2025-12-21T08:36:01.033281", "type": "gps", "data": {"raw": "$GBGSV,2,1,06,19,21,141,21,21,48,316,21,22,75,150,29,26,13,231,13,3*7C", "type": "$GBGSV", "timestamp": "2025-12-21T08:36:01.033278"}, "gps_position": {"latitude": 35.9684001, "longitude": -115.08140156666667, "altitude": 2718.504024}}
{"timestamp": "2025-12-21T08:36:01.033312", "type": "gps", "data": {"raw": "$GBGSV,2,2,06,36,56,044,28,45,71,237,22,3*7F", "type": "$GBGSV", "timestamp": "2025-12-21T08:36:01.033309"}, "gps_position": {"latitude": 35.9684001, "longitude": -115.08140156666667, "altitude": 2718.504024}}
{"timestamp": "2025-12-21T08:36:01.033344", "type": "gps", "data": {"raw": "$GBGSV,1,1,04,19,21,141,17,21,48,316,22,22,75,150,15,36,56,044,22,5*70", "type": "$GBGSV", "timestamp": "2025-12-21T08:36:01.033340"}, "gps_position": {"latitude": 35.9684001, "longitude": -115.08140156666667, "altitude": 2718.504024}}
{"timestamp": "2025-12-21T08:36:01.033375", "type": "gps", "data": {"raw": "$GNGSA,A,3,03,04,07,08,09,16,27,31,,,,,0.8,0.5,0.6,1*3B", "type": "$GNGSA", "timestamp": "2025-12-21T08:36:01.033372"}, "gps_position": {"latitude": 35.9684001, "longitude": -115.08140156666667, "altitude": 2718.504024}}
{"timestamp": "2025-12-21T08:36:01.033407", "type": "gps", "data": {"raw": "$PSSGR,GSA,A,3,09,,,,,,,,,,,,0.8,0.5,0.6,1,8*47", "type": "$PSSGR", "timestamp": "2025-12-21T08:36:01.033404"}, "gps_position": {"latitude": 35.9684001, "longitude": -115.08140156666667, "altitude": 2718.504024}}
{"timestamp": "2025-12-21T08:36:01.033439", "type": "gps", "data": {"raw": "$GNGSA,A,3,65,66,76,,,,,,,,,,0.8,0.5,0.6,2*3B", "type": "$GNGSA", "timestamp": "2025-12-21T08:36:01.033436"}, "gps_position": {"latitude": 35.9684001, "longitude": -115.08140156666667, "altitude": 2718.504024}}
{"timestamp": "2025-12-21T08:36:01.034539", "type": "gps", "data": {"raw": "$GNGSA,A,3,02,03,07,08,13,16,25,26,30,,,,0.8,0.5,0.6,3*33", "type": "$GNGSA", "timestamp": "2025-12-21T08:36:01.034530"}, "gps_position": {"latitude": 35.9684001, "longitude": -115.08140156666667, "altitude": 2718.504024}}
{"timestamp": "2025-12-21T08:36:01.035183", "type": "gps", "data": {"raw": "$PSSGR,GSA,A,3,308,,,,,,,,,,,,0.8,0.5,0.6,3,1*7E", "type": "$PSSGR", "timestamp": "2025-12-21T08:36:01.035178"}, "gps_position": {"latitude": 35.9684001, "longitude": -115.08140156666667, "altitude": 2718.504024}}
{"timestamp": "2025-12-21T08:36:01.035230", "type": "gps", "data": {"raw": "$GNGSA,A,3,19,21,22,36,45,,,,,,,,0.8,0.5,0.6,4*30", "type": "$GNGSA", "timestamp": "2025-12-21T08:36:01.035226"}, "gps_position": {"latitude": 35.9684001, "longitude": -115.08140156666667, "altitude": 2718.504024}}
{"timestamp": "2025-12-21T08:36:01.035265", "type": "gps", "data": {"raw": "$PSSGR,GSA,A,3,221,236,,,,,,,,,,,0.8,0.5,0.6,4,5*40", "type": "$PSSGR", "timestamp": "2025-12-21T08:36:01.035262"}, "gps_position": {"latitude": 35.9684001, "longitude": -115.08140156666667, "altitude": 2718.504024}}
{"timestamp": "2025-12-21T08:36:01.035895", "type": "gps", "data": {"raw": "$GNVTG,,T,,M,0.0,N,0.0,K,A*3D", "type": "$GNVTG", "timestamp": "2025-12-21T08:36:01.035890"}, "gps_position": {"latitude": 35.9684001, "longitude": -115.08140156666667, "altitude": 2718.504024}}
{"timestamp": "2025-12-21T08:36:01.035981", "type": "gps", "data": {"raw": "$GNDTM,W84,,0000.000000,N,00000.000000,E,0.000,W84*41", "type": "$GNDTM", "timestamp": "2025-12-21T08:36:01.035977"}, "gps_position": {"latitude": 35.9684001, "longitude": -115.08140156666667, "altitude": 2718.504024}}
{"timestamp": "2025-12-21T08:36:01.036041", "type": "gps", "data": {"raw": "$GNRMC,163601.00,A,3558.104006,N,11504.884094,W,0.0,,211225,10.9,E,A,V*51", "type": "$GNRMC", "timestamp": "2025-12-21T08:36:01.036022", "time": "163601.00", "status": "A", "latitude": "35.9684001", "longitude": "-115.08140156666667", "speed": "0.0", "track": ""}, "gps_position": {"latitude": 35.9684001, "longitude": -115.08140156666667, "altitude": 2718.504024}}
{"timestamp": "2025-12-21T08:36:01.036088", "type": "gps", "data": {"raw": "$GNGNS,163601.00,3558.104006,N,11504.884094,W,AAAANN,25,0.5,828.6,-28.2,,,V*10", "type": "$GNGNS", "timestamp": "2025-12-21T08:36:01.036084"}, "gps_position": {"latitude": 35.9684001, "longitude": -115.08140156666667, "altitude": 2718.504024}}
